Name;X;Y;Lat;Long
WESTMINSTER STN <> / PARLIAMENT SQUARE;530171;179738;51.501597;-0.12598822
TREVOR CLOSE;515781;174783;51.460191;-0.33483096
HIGHBURY CORNER;531614;184603;51.544983;-0.10339507
HIGHBURY & ISLINGTON STATION <> #;531573;184786;51.546637;-0.10391762
ST MARY MAGDALENE CHURCH;531365;184986;51.548482;-0.10684091
ST MARY MAGDALENE CHURCH;531328;185009;51.548698;-0.10736564
HOLLOWAY ROAD STATION <>;531036;185378;51.552081;-0.11143711
HOLLOWAY ROAD STATION <>;530939;185465;51.552886;-0.11280298
LYNWOOD ROAD;517950;182729;51.531159;-0.30097157
LYNWOOD ROAD;517907;182704;51.530943;-0.30159954
WOOLWICH ROAD / BEDONWELL ROAD;548180;177996;51.481515;0.13255941
WOOLWICH ROAD / BEDONWELL ROAD;548036;177997;51.481561;0.13048762
QUEENS ROAD;521827;168125;51.399085;-0.25013458
ST JOSEPH'S CHURCH;521080;168163;51.399587;-0.26085436
ST JOSEPH'S CHURCH;521017;168169;51.399654;-0.2617575
ELM ROAD / NEW MALDEN BAPTIST CHURCH;520697;168304;51.400936;-0.26630939
ARCHDALE PLACE;519927;168691;51.404577;-0.27724244
CALIFORNIA ROAD;520074;168585;51.403593;-0.27516595
WATERS ROAD;519527;168967;51.407142;-0.2828974
CAMBRIDGE GROVE;519254;169156;51.408898;-0.28675707
VICARAGE HOUSE;518954;169281;51.410084;-0.29102651
RAYNES PARK STATION #;523241;169249;51.408882;-0.2294287
KINGS ROAD;518686;175064;51.462115;-0.29294166
ST MARY'S GROVE;518796;175063;51.462083;-0.29135934
CLAPTON POND;534857;185908;51.555945;-0.056156703
CEDAR WAY;500333;178601;51.497456;-0.55602557
CLAPTON POND;534887;186004;51.5568;-0.055687448
DITTON PARK ROAD;500753;178316;51.494819;-0.55005854
CHAPTER ROAD;522062;184972;51.550444;-0.2409435
CHAPTER ROAD;522046;185008;51.550771;-0.24116167
ST JOHN STREET / GOSWELL ROAD;531453;183089;51.531414;-0.10628032
TALLY HO CORNER;526317;192117;51.613719;-0.17704027
KILBURN PARK STATION <>;525408;183392;51.535511;-0.19327348
KILBURN PARK STATION <>;525381;183300;51.53469;-0.19369528
FAIRLAWN AVENUE;527295;189380;51.588902;-0.16391552
MULGRAVE ROAD;524679;177667;51.484222;-0.205801
FULHAM POOLS;524535;177622;51.483849;-0.20788961
THIRLMERE GARDENS;507950;191964;51.616161;-0.44224151
QUEENS GROVE;526571;183570;51.536852;-0.17645062
GLYN ROAD;536020;185145;51.548809;-0.039686389
GLYN ROAD;535998;185150;51.548859;-0.040001546
QUEENS GROVE;526591;183569;51.536838;-0.17616277
MORDEN SOUTH STATION #;525286;167949;51.396751;-0.20049977
MORDEN SOUTH STATION #;525298;167852;51.395877;-0.20036159
CHALGROVE AVENUE;525191;167781;51.395262;-0.2019238
BUSHEY ROAD / GRAND DRIVE;523151;169059;51.407194;-0.23078797
BUSHEY ROAD;523244;168951;51.406203;-0.22948904
BUSHEY ROAD;523258;168879;51.405553;-0.22931286
LEA BRIDGE ROAD;536921;187624;51.570868;-0.025735698
THAMES AVENUE;550121;183083;51.52671;0.16265389
LEA BRIDGE ROAD;536889;187654;51.571145;-0.02618546
ST SAVIOUR'S CHURCH;536738;187903;51.573419;-0.028266068
BARNES STATION #;522211;175652;51.466651;-0.24202258
QUEEN'S ROAD;536609;188269;51.576739;-0.029984144
MARKHOUSE AVENUE;536560;188526;51.579061;-0.030590979
MARKHOUSE AVENUE;536578;188491;51.578742;-0.030344971
HAZELWOOD ROAD;536257;188881;51.582324;-0.034823414
WALTHAMSTOW MARKET;536302;188834;51.581891;-0.034192577
BARNES STATION #;522267;175737;51.467402;-0.24118743
LONGFIELD AVENUE;536069;189104;51.584373;-0.037448724
BLACKHORSE ROAD STATION <> #;535855;189345;51.586591;-0.040442361
BLACKHORSE ROAD STATION <> #;535861;189367;51.586787;-0.040347303
BLENHEIM ROAD;535857;189755;51.590274;-0.040254961
FOREST ROAD;535864;189465;51.587667;-0.040266131
FOREST ROAD;535867;189518;51.588142;-0.040202359
BLENHEIM ROAD;535904;189660;51.589409;-0.039613681
WALTHAM FOREST COLLEGE;535857;190128;51.593626;-0.040110691
PRIESTLEY WAY;535886;189904;51.591606;-0.039778961
WALTHAM FOREST COLLEGE;535873;190136;51.593694;-0.03987676
CLARENCE ROAD;535784;190307;51.595252;-0.041094678
LAWRENCE AVENUE;535912;190708;51.598825;-0.039092709
WORCESTER ROAD;535770;190461;51.596639;-0.041237127
LAWRENCE AVENUE;535956;190699;51.598733;-0.038461321
HIGHAM HILL ROAD;536098;190735;51.599023;-0.036398464
HIGHAM HILL ROAD;536108;190722;51.598903;-0.036259214
GUILDSWAY;536614;190824;51.599698;-0.028918508
NORTH COUNTESS ROAD;536822;190825;51.599656;-0.025916864
GUILDSWAY;536583;190813;51.599606;-0.02937009
WALTHAMSTOW ACADEMY;537012;190868;51.599996;-0.02315856
NORTH COUNTESS ROAD;536782;190809;51.599522;-0.026500261
WALTHAMSTOW ACADEMY;537028;190857;51.599894;-0.022931987
CECIL ROAD;537174;190909;51.600325;-0.020805018
KAYWOOD CLOSE;499482;179165;51.502675;-0.56812182
BANK STATION <> / POULTRY;532532;181150;51.513738;-0.091462677
ERITH FIRE STATION;549767;178438;51.485068;0.15558391
ERITH FIRE STATION;549808;178442;51.485094;0.15617565
BEULAH SPA;532748;170084;51.414242;-0.092503132
BEULAH SPA;532719;170115;51.414528;-0.092908303
AVENUE ROAD;527416;183348;51.534667;-0.1643541
AVENUE ROAD;527511;183406;51.535166;-0.1629642
STAMFORD BROOK BUS GARAGE;521636;178587;51.493152;-0.24928645
STAMFORD BROOK BUS GARAGE;521620;178568;51.492985;-0.24952335
CHISWICK POLICE STATION;520905;178487;51.49241;-0.25984512
FENCHURCH STREET STATION #;533329;180989;51.512104;-0.080044792
CLIFTON GARDENS;520773;178494;51.492501;-0.26174315
ST ANN'S ROAD;531763;188697;51.581738;-0.099714406
ST ANN'S ROAD;531756;188835;51.58298;-0.099763639
PHILIP LANE;533739;189444;51.587986;-0.070928581
WOOLWICH ROAD / GALLIONS ROAD;540897;178446;51.487418;0.027928255
SADLER'S WELLS THEATRE;531476;182834;51.529118;-0.10604404
ST MARY OF ETON CHURCH;536695;184772;51.545294;-0.030102365
ST MARY OF ETON CHURCH;536683;184824;51.545765;-0.030255127
SADLER'S WELLS THEATRE;531467;182843;51.529201;-0.10617035
HESA ROAD;510501;180922;51.516423;-0.4088799
THE GRAPES;510673;181129;51.51825;-0.40633718
FORTUNE GREEN;525100;185526;51.554758;-0.19695387
WEST HAMPSTEAD POLICE STATION;525220;185397;51.553572;-0.1952698
LEA BRIDGE ROAD / BAKERS ARMS;537871;188255;51.576307;-0.011789401
LEA BRIDGE ROAD / BAKERS ARMS;537843;188198;51.575801;-0.012215554
THE OLD VIC;531368;179740;51.501338;-0.10875208
THE OLD VIC;531345;179734;51.50129;-0.10908548
GUNNERSBURY STATION <> #;519799;178464;51.492439;-0.27577624
ALPHA CLOSE;527451;182506;51.527092;-0.1641542
LONDON BUSINESS SCHOOL;527604;182407;51.526168;-0.16198571
DEAN STREET / CHINATOWN;529797;180925;51.51235;-0.13093697
HOLBORN STATION <>;530640;181536;51.517647;-0.1185696
MONTPELIER ROAD;517584;181651;51.521546;-0.30660498
HOLLAND ROAD / NAPIER PLACE;524584;179096;51.497085;-0.20666457
VESTRY ROAD;533283;176714;51.473697;-0.082320188
NORLAND SQUARE;524330;180094;51.50611;-0.20997031
HOLLAND PARK STATION <>;524595;180195;51.50696;-0.20611839
EDITH GROVE;526132;177655;51.483792;-0.18489082
FULHAM ROAD / CHELSEA & WESTMINSTER HOSP;526146;177729;51.484454;-0.1846629
EDITH GROVE;526212;177722;51.484376;-0.18371539
FULHAM ROAD / BEAUFORT STREET;526562;178085;51.487561;-0.17854752
OLD CHURCH STREET;526724;178261;51.489106;-0.17615242
SPUR ROAD / ORPINGTON WAR MEMORIAL;546166;165873;51.373107;0.098579437
PRATTS BOTTOM / SEVENOAKS ROAD;547131;162667;51.34405;0.11110847
HYDE PARK CORNER STATION <>;528274;179818;51.502749;-0.1532743
OLD CHURCH STREET;526702;178215;51.488697;-0.17648561
SEVENOAKS ROAD / ORPINGTON WAR MEMORIAL;546076;165793;51.372411;0.097254484
ONSLOW SQUARE;526985;178620;51.492274;-0.1722662
VILLAGE GREEN ROAD;552042;175069;51.454192;0.18687533
THE RISE;551968;175037;51.453924;0.18579738
STANHAM PLACE;552394;175129;51.454636;0.19196334
THE JOLLY FARMERS OPEN SPACE;552522;175146;51.454754;0.19381147
ONSLOW SQUARE;526989;178635;51.492408;-0.17220322
MILL PLACE;552615;175256;51.455718;0.19519636
PERRY STREET;551584;176098;51.46356;0.1807294
PERRY STREET;551617;176107;51.463632;0.18120793
EVERSLEY CROSS;551316;176093;51.463587;0.17687227
EVERSLEY CROSS;551278;176101;51.463669;0.17632909
NORTHALL ROAD / MANOR WAY;550463;176129;51.464137;0.1646177
PARKSIDE AVENUE / MANOR WAY;550723;176098;51.46379;0.16834448
BRIDGE ROAD / NORTHEND ROAD;551712;176489;51.467039;0.18273824
PENTON STREET;531073;183104;51.531638;-0.11174987
PENTON STREET / CHAPEL MARKET;531164;183107;51.531643;-0.1104376
GUILFORD STREET;530828;182245;51.523975;-0.11559867
GUILFORD STREET;530787;182322;51.524676;-0.11616075
KENTISH TOWN STATION <> #;528990;185246;51.551366;-0.14097847
KENTISH TOWN STATION <> #;529012;185118;51.550211;-0.14070824
COOMBE ROAD;532621;164939;51.368036;-0.096248496
COOMBE ROAD;532608;164915;51.367823;-0.096444079
BIRDHURST GARDENS;533054;164687;51.36567;-0.090126258
BIRDHURST ROAD / SOUTH CROYDON STATION #;533039;164261;51.361845;-0.09050084
BIRDHURST ROAD / SOUTH CROYDON STATION #;532948;164290;51.362127;-0.091796295
NEWINGTON GREEN;532820;185381;51.551692;-0.085720355
CARLTON ROAD;532947;163532;51.355315;-0.092093718
TWIN BRIDGES BUSINESS PARK;532935;163608;51.356001;-0.092237577
CARLTON ROAD;533012;163573;51.355668;-0.091145473
CROHAM ROAD;532663;164229;51.361645;-0.095910181
ALBION ROAD;532793;185469;51.552489;-0.086076352
ELECTRIC HOUSE;532519;165679;51.37471;-0.097437231
WHITGIFT CENTRE;532444;165831;51.376093;-0.098457544
WHITGIFT CENTRE;532432;165928;51.376967;-0.098593736
PURLEY WAY / WADDON STATION #;530973;164850;51.367618;-0.11994148
PURLEY WAY / WADDON STATION #;530956;164861;51.367721;-0.1201815
GREEN LANES;532855;185470;51.552483;-0.085182265
PURLEY OAKS STATION #;532396;162905;51.349809;-0.10023521
PURLEY OAKS STATION #;532321;162781;51.348712;-0.10135761
PURLEY / DOWNLANDS PRECINCT;531352;161707;51.339285;-0.11565953
CHRISTCHURCH ROAD / PURLEY HOSPITAL;531508;161865;51.340669;-0.11336295
COOMBE ROAD;532424;164816;51.366976;-0.09912256
COOMBE ROAD;532415;164953;51.368209;-0.099200785
LIVERPOOL ROAD;531119;185283;51.551208;-0.11027606
PASTEUR GARDENS;532570;192128;51.612381;-0.086778964
PASTEUR GARDENS;532599;192130;51.612392;-0.086359633
EMPIRE PARADE;532644;191812;51.609524;-0.085830338
EMPIRE PARADE;532674;191766;51.609104;-0.085414748
CHURCH HILL ROAD;523483;164970;51.370373;-0.22743779
LIVERPOOL ROAD;531145;185230;51.550726;-0.10992103
CHURCH HILL ROAD;523534;164918;51.369894;-0.22672355
PARK AVENUE;530550;190781;51.600748;-0.11643639
ALLIANCE ROAD;519612;182238;51.526396;-0.27718956
SOUTHWOOD AVENUE;528783;187935;51.575579;-0.14297807
HARINGEY CIVIC CENTRE;530894;190703;51.599967;-0.11150149
HARINGEY CIVIC CENTRE;530910;190702;51.599955;-0.11127098
CANNING CRESCENT;530852;190905;51.601792;-0.11203226
CLAPHAM SOUTH STATION <>;528750;174295;51.453007;-0.14843125
BERKSHIRE GARDENS;530955;191645;51.608418;-0.11026982
BERKSHIRE GARDENS;530958;191728;51.609163;-0.11019555
TOTTENHALL ROAD;531004;191963;51.611265;-0.1094439
BROOMFIELD LANE;530970;192377;51.614993;-0.10978008
BROOMFIELD LANE;530985;192396;51.61516;-0.10955647
CLAPHAM SOUTH STATION <>;528741;174281;51.452883;-0.1485658
PALMERS GREEN / THE TRIANGLE;530996;192606;51.617045;-0.10931926
LODGE DRIVE;531110;192821;51.61895;-0.10759326
FOX LANE;531172;192966;51.620239;-0.106644
FOX LANE;531220;193067;51.621135;-0.10591327
ST MONICA'S CHURCH;531418;193381;51.623911;-0.10293714
BOURNE HILL;531317;193285;51.623072;-0.10443128
PARK HILL;529734;175050;51.459568;-0.13400097
MEADOWCROFT ROAD;531553;193486;51.624823;-0.10094869
MEADOWCROFT ROAD;531591;193506;51.624994;-0.10039255
HYDE PARK CORNER STATION <>;528237;179804;51.502632;-0.15381217
STATION ROAD;531839;194173;51.63093;-0.096561122
BOSTON MANOR STATION <>;516433;178756;51.495765;-0.32414211
GREEN DRAGON LANE;532191;194766;51.636176;-0.091254685
GREEN DRAGON LANE;532153;194688;51.635484;-0.091832872
SOLNA ROAD;532507;194733;51.635805;-0.086703745
SOLNA ROAD;532550;194744;51.635894;-0.086078618
CONIFER GARDENS;532964;195151;51.639454;-0.079945546
CONIFER GARDENS;532967;195058;51.638617;-0.07993752
BUSH HILL;532867;195683;51.644257;-0.081144619
BUSH HILL;532894;195664;51.64408;-0.080761849
PARK CRESCENT;532929;195952;51.64666;-0.080146993
PARK CRESCENT;532914;195903;51.646223;-0.08038226
CECIL ROAD / ST ANNES SCHOOL;532919;196301;51.649798;-0.080158941
CECIL ROAD / ST ANNES SCHOOL;532940;196217;51.649039;-0.079887484
ENFIELD TOWN / GENOTIN ROAD;532962;196510;51.651666;-0.079458402
ENFIELD TOWN / CHURCH STREET;532680;196565;51.652227;-0.08351135
TOTTENHAM POLICE STATION;533778;189713;51.590394;-0.070263541
PHILIP LANE;533758;189438;51.587927;-0.070656776
TOTTENHAM TOWN HALL;533726;189315;51.58683;-0.071165216
WOOD GREEN CROWN COURT;531425;190570;51.598649;-0.10388901
CIRENCESTER STREET;525527;181772;51.520926;-0.19213546
WOOD GREEN CROWN COURT;531379;190534;51.598336;-0.10456624
PERTH ROAD;531675;190686;51.599633;-0.10023816
PERTH ROAD;531570;190636;51.599208;-0.10177202
GLADSTONE AVENUE;531934;190573;51.598557;-0.096543331
MORLEY AVENUE;531811;190625;51.599053;-0.09829862
GLADSTONE AVENUE;532006;190523;51.59809;-0.095523216
WESTBURY AVENUE / LORDSHIP LANE;532130;190543;51.598241;-0.093726473
CIRENCESTER STREET;525538;181783;51.521022;-0.19197308
THE ROUNDWAY / WEST ARM;532303;190512;51.597922;-0.091241901
THE ROUNDWAY / WEST ARM;532280;190532;51.598107;-0.091566236
WALTHEOF AVENUE;532613;190519;51.597912;-0.086766247
WALTHEOF AVENUE;532521;190507;51.597826;-0.08809825
AWLFIELD AVENUE;532949;190539;51.598013;-0.081910523
AWLFIELD AVENUE;532866;190518;51.597844;-0.083116081
MOUNT PLEASANT ROAD;533207;190579;51.598311;-0.07817266
MOUNT PLEASANT ROAD;533064;190545;51.598039;-0.08024891
THE ROUNDWAY / EAST ARM;533370;190596;51.598425;-0.075814261
BRUCE CASTLE PARK;533460;190563;51.598108;-0.074528183
ELMHURST ROAD;533634;190345;51.596107;-0.072100501
ELMHURST ROAD;533568;190408;51.596689;-0.07302881
BRUCE GROVE STATION #;533768;190175;51.594548;-0.070231856
BRUCE GROVE STATION #;533730;190204;51.594818;-0.070769072
PARNELL ROAD;536803;183711;51.535734;-0.028957889
PARNELL ROAD;536776;183718;51.535804;-0.029344212
CATFORD ROAD / LEWISHAM TOWN HALL;537627;173609;51.444756;-0.02102007
BOUNDS GREEN STATION <>;530034;191581;51.608056;-0.12358602
BOUNDS GREEN STATION <>;530032;191524;51.607545;-0.12363601
TAVISTOCK SQUARE;529962;182326;51.524903;-0.12804441
PARSONS GREEN LANE / FULHAM LIBRARY;524988;176951;51.477719;-0.20160637
PARSONS GREEN LANE / FULHAM LIBRARY;524944;176870;51.477001;-0.20226824
MUNSTER ROAD;524590;176518;51.473915;-0.20748697
MUNSTER ROAD;524585;176491;51.473674;-0.20756843
HERNE HILL ROAD;532535;175181;51.460097;-0.093658089
HERNE HILL ROAD;532481;175073;51.459139;-0.094475337
THE GREEN;505301;190561;51.604052;-0.48090814
MERLE AVENUE;505161;190399;51.602622;-0.48297742
SHRUBS ROAD;506702;191541;51.612597;-0.46038835
SHRUBS ROAD;506674;191513;51.612351;-0.46080109
MIDDLETON ROAD;533501;184236;51.541242;-0.07633822
MYDDELTON ROAD;530424;189323;51.587675;-0.11879603
ARDLEIGH GREEN SCHOOL;553943;189692;51.585062;0.22059614
ARDLEIGH GREEN SCHOOL;553945;189641;51.584603;0.22060264
MARKET PLACE / BEXLEYHEATH CLOCK TOWER;549273;175249;51.456545;0.14712872
SHREWSBURY ROAD;541897;184210;51.538962;0.044639326
THORNHILL ROAD;518257;165793;51.378881;-0.30220441
THORNHILL ROAD;518253;165838;51.379286;-0.3022469
SHACKLEWELL LANE;533565;185368;51.551399;-0.074986598
LAKESIDE WAY;518957;185728;51.557901;-0.28544834
WEMBLEY ARENA;519012;185896;51.559399;-0.28459855
EDGWARE ROAD / THE HYDE;521382;188696;51.584058;-0.24946094
EDGWARE ROAD / THE HYDE;521433;188702;51.584101;-0.24872314
RUVIGNY GARDENS;523794;175765;51.467322;-0.21920569
RUVIGNY GARDENS;523839;175748;51.46716;-0.21856414
FESTING ROAD;523499;175863;51.468268;-0.22341622
GREENWOOD ROAD;534346;184772;51.545858;-0.063956526
FESTING ROAD;523557;175832;51.467976;-0.22259247
COMMONDALE;523194;175874;51.468433;-0.22780111
COMMONDALE;523246;175867;51.468359;-0.22705531
PUTNEY BRIDGE ROAD;524078;175451;51.464438;-0.21522936
PUTNEY EXCHANGE;524026;175274;51.462859;-0.21603957
SHEFFIELD TERRACE;525404;180122;51.506125;-0.19449375
SHEFFIELD TERRACE;525400;180205;51.506872;-0.19452186
GLOUCESTER ROAD STATION <>;526286;178805;51.494093;-0.18226318
PALACE GATE;526133;179622;51.501469;-0.18417415
GREENWOOD ROAD;534305;184764;51.545796;-0.064550485
PALACE GATE;526146;179612;51.501376;-0.18399053
STANHOPE GARDENS;526465;178774;51.493774;-0.17969721
STANHOPE GARDENS;526501;178769;51.493721;-0.17918071
ROYAL BROMPTON HOSP / ROYAL MARSDEN HOSP;526888;178445;51.490723;-0.1737255
CHELSEA AND WESTMINSTER HOSPITAL;526294;177810;51.485149;-0.18250364
HORTENSIA ROAD;525994;177482;51.482268;-0.18693884
STOKE NEWINGTON STATION #;533660;186860;51.564784;-0.073050612
REDCLIFFE SQUARE;525899;178043;51.487331;-0.18810637
EARLS COURT ROAD / OLD BROMPTON ROAD;525708;178358;51.490204;-0.19074375
EARLS COURT STATION <>;525575;178555;51.492004;-0.19258839
SCARSDALE VILLAS;525261;179007;51.496136;-0.19694861
PEMBROKE ROAD;525260;179045;51.496478;-0.19694953
GLOUCESTER ROAD;526381;178473;51.491088;-0.18101423
MYDDELTON ROAD;530473;189320;51.587637;-0.11809027
GLOUCESTER ROAD;526425;178478;51.491123;-0.18037901
BOLTON GARDENS / BROMPTON LIBRARY;525972;178386;51.490397;-0.18693326
BROMPTON SQUARE;527301;179202;51.497433;-0.1675072
VICTORIA AND ALBERT MUSEUM;527069;179063;51.496236;-0.17089755
VICTORIA AND ALBERT MUSEUM;527143;179077;51.496345;-0.16982708
COLLINGHAM ROAD / SAINSBURY'S;525930;178872;51.494774;-0.18736465
CROMWELL HOSPITAL;525737;178850;51.494619;-0.19015117
WARWICK GARDENS;524825;179152;51.497535;-0.20317482
HOLLAND GARDENS;524416;179285;51.498821;-0.20901689
LOWER ADDISON GARDENS;524100;179643;51.502108;-0.21344108
PARK GROVE;518731;192232;51.616402;-0.28650909
ALEXANDRA PALACE GARDEN CENTRE;529364;189816;51.592349;-0.13390624
ALEXANDRA PALACE ICE RINK;529632;189966;51.593636;-0.12998426
ALEXANDRA PALACE PALM COURT;529422;189902;51.593109;-0.13303774
ALEXANDRA PALACE GARDEN CENTRE;529343;189819;51.592381;-0.13420811
ALEXANDRA PALACE PARK;529981;190242;51.596036;-0.12484673
ALEXANDRA PALACE ICE RINK;529774;190157;51.59532;-0.1278649
ALEXANDRA PALACE PALM COURT;529426;189931;51.593369;-0.13296934
ALEXANDRA PALACE PARK;530022;190239;51.595999;-0.12425626
RUTLAND GARDENS;527314;179697;51.501879;-0.16714157
KNIGHTSBRIDGE BARRACKS;527391;179679;51.5017;-0.16603931
PRINCE OF WALES GATE;527043;179702;51.501985;-0.17104201
PRINCE OF WALES GATE;527155;179684;51.501798;-0.16943576
QUEENS GATE;526332;179632;51.501515;-0.1813051
CHELSEA FOOTBALL CLUB;525786;177247;51.480202;-0.19001627
CHELSEA FOOTBALL CLUB;525791;177232;51.480066;-0.18994965
RADIPOLE ROAD;524787;176796;51.47637;-0.20455387
RADIPOLE ROAD;524733;176738;51.475861;-0.20535148
FULHAM PALACE ROAD;524377;176296;51.471967;-0.2106303
FULHAM PALACE ROAD;524411;176313;51.472112;-0.21013505
MULGRAVE ROAD;524790;177728;51.484746;-0.20418172
NORTH END ROAD;524960;177832;51.485643;-0.20169792
FULHAM POOLS;524464;177578;51.483469;-0.20892708
FULHAM CROSS;524166;177488;51.482726;-0.21324808
FULHAM CROSS;524025;177505;51.48291;-0.21527163
SHORROLDS ROAD;524870;177233;51.480279;-0.20320503
SHORROLDS ROAD;524808;177244;51.480392;-0.20409351
SHERBROOKE ROAD;524647;177284;51.480787;-0.20639666
SHERBROOKE ROAD;524527;177300;51.480957;-0.20811819
HANNELL ROAD;524269;177365;51.481598;-0.21180877
MUNSTER ROAD;524237;177361;51.481569;-0.21227076
MUNSTER ROAD / FULHAM CROSS;524152;177421;51.482127;-0.21347313
LILLIE ROAD;524923;177745;51.484869;-0.20226127
LILLIE ROAD;524883;177886;51.486145;-0.20278722
WEST KENSINGTON ESTATE;524794;178088;51.48798;-0.20399702
WEST KENSINGTON ESTATE;524807;178095;51.48804;-0.20380741
WEST KENSINGTON STATION <>;524615;178299;51.489916;-0.20649937
WEST KENSINGTON STATION <>;524603;178372;51.490574;-0.20664637
LYTTON ESTATE;524523;178602;51.492659;-0.207717
LYTTON ESTATE;524437;178676;51.493343;-0.20892906
KENSINGTON OLYMPIA;524327;178794;51.494428;-0.2104712
RUMBOLD ROAD;525861;177054;51.478451;-0.18900553
RUMBOLD ROAD;525887;177065;51.478544;-0.18862741
WANDSWORTH BRIDGE ROAD;525498;176715;51.475485;-0.19435021
WANDSWORTH BRIDGE ROAD;525562;176760;51.475875;-0.19341319
IRENE ROAD;525365;176553;51.474059;-0.19632168
IRENE ROAD;525317;176493;51.47353;-0.1970337
PARSONS GREEN;525166;176415;51.472863;-0.1992343
MUNSTER ROAD;524795;176304;51.471947;-0.20461235
MUNSTER ROAD;524795;176290;51.471821;-0.20461729
NEW KINGS ROAD;525610;176740;51.475685;-0.19272951
NEW KING'S ROAD;525626;176724;51.475538;-0.19250493
OAKBURY ROAD;525747;176112;51.470011;-0.19098117
ROYAL HOSPITAL CHELSEA / LOWER SLOANE ST;528051;178274;51.488924;-0.15704515
NATIONAL ARMY MUSEUM;527815;178025;51.48674;-0.16053249
NATIONAL ARMY MUSEUM;527804;177997;51.486491;-0.16070096
ALBERT BRIDGE;527259;177613;51.483162;-0.16868423
ALBERT BRIDGE;527438;177642;51.483383;-0.16609735
SPA ROAD;533542;179133;51.495375;-0.077679244
BEAUFORT STREET;527017;177515;51.482336;-0.17220268
DUKE OF YORK SQUARE;527750;178484;51.490879;-0.16130219
MARKHAM STREET;527515;178270;51.489009;-0.16476245
CHELSEA OLD TOWN HALL;527328;178142;51.487901;-0.1675005
CARLYLE SQUARE;527079;177996;51.486645;-0.17113736
CARLYLE SQUARE;527067;177972;51.486432;-0.17131872
HOBURY STREET / WORLDS END;526534;177517;51.482462;-0.17915392
EDITH GROVE / WORLDS END;526529;177495;51.482266;-0.17923377
CHEYNE WALK;526893;177538;51.482571;-0.17397919
BROADHURST GARDENS;525508;184547;51.545869;-0.19142099
SPA ROAD;533647;179074;51.49482;-0.076189927
CHEYNE WALK;526896;177557;51.482741;-0.17392918
ROYAL BROMPTON HOSP / ROYAL MARSDEN HOSP;526866;178405;51.490368;-0.17405657
CHELSEA AND WESTMINSTER HOSPITAL;526342;177836;51.485372;-0.18180343
HORTENSIA ROAD;526024;177506;51.482477;-0.18649848
EDITH GROVE / KINGS ROAD;526325;177500;51.482356;-0.18216821
CALE STREET / ROYAL BROMPTON HOSPITAL;527125;178330;51.489636;-0.17035505
CALE STREET / ROYAL BROMPTON HOSPITAL;527127;178362;51.489923;-0.17031474
ALPHA CLOSE;527422;182556;51.527548;-0.16455394
FLOOD STREET;527617;177783;51.48461;-0.16347
FLOOD STREET;527625;177772;51.484509;-0.16335882
WEDMORE STREET;529978;186491;51.562328;-0.126277
LORD AVENUE;542536;189264;51.584214;0.055894158
WOODFORD BRIDGE ROAD;542447;189359;51.58509;0.054648979
HAYES / GEORGE LANE;540560;166409;51.379337;0.01830461
HAYES / GEORGE LANE;540527;166365;51.37895;0.017813363
ABINGER ROAD;521599;179011;51.496971;-0.24967319
ABINGER ROAD;521573;178990;51.496788;-0.25005478
TURNHAM GREEN STATION <>;521286;178892;51.495968;-0.25422078
TURNHAM GREEN STATION <>;521266;178873;51.495802;-0.25451527
FLANCHFORD ROAD;521958;179207;51.498655;-0.24443647
FLANCHFORD ROAD;521983;179203;51.498614;-0.24407788
THE ORCHARD;521014;178860;51.495739;-0.25814806
RAMILLIES ROAD;520829;178814;51.495365;-0.26082746
ACTON GREEN;520574;178891;51.496112;-0.26447268
STATION ROAD / CHINGFORD STATION #;539114;194602;51.633034;0.00865208
LANGLEY AVENUE;518337;166598;51.386099;-0.30078754
LANGLEY AVENUE;518356;166558;51.385736;-0.30052794
RUISLIP LIDO;508610;189132;51.590581;-0.43358888
ST ANTHONY'S HOSPITAL;523929;165823;51.377942;-0.2207367
TUDOR DRIVE;524607;166772;51.386322;-0.21066747
CHENIES PLACE;529832;183337;51.534018;-0.12954489
CHENIES PLACE;529747;183418;51.534765;-0.13073985
ST PANCRAS OLD CHURCH;529752;183401;51.534611;-0.13067407
ST PANCRAS HOSPITAL;529643;183485;51.535391;-0.13221379
ROYAL COLLEGE STREET;529526;183494;51.535499;-0.13389641
PLENDER STREET;529465;183668;51.537077;-0.13471148
PRATT STREET;529375;183852;51.538751;-0.13594084
CAMDEN ROAD STATION #;529224;184128;51.541266;-0.13801563
ROYAL COLLEGE STREET / IVOR STREET;529142;184268;51.542543;-0.13914606
KENTISH TOWN ROAD;529003;184484;51.544515;-0.14107022
KENTISH TOWN POST OFFICE;528982;184953;51.548735;-0.14120111
KENTISH TOWN POST OFFICE;528987;184895;51.548213;-0.14115029
KENTISH TOWN FIRE STATION;528882;185418;51.552937;-0.1424723
FORTESS ROAD;528954;185323;51.552066;-0.1414692
LADY SOMERSET ROAD;528776;185513;51.553814;-0.14396557
KENTISH TOWN FIRE STATION;528827;185482;51.553524;-0.14324172
LADY SOMERSET ROAD;528693;185677;51.555307;-0.14510211
BROADHURST GARDENS;525503;184489;51.545349;-0.19151373
GORDON HOUSE ROAD;528619;185765;51.556115;-0.14613674
DARTMOUTH PARK ROAD;528546;185899;51.557336;-0.14714019
WILLIAM ELLIS SCHOOL;528421;186057;51.558784;-0.14888463
WILLIAM ELLIS SCHOOL;528387;186131;51.559457;-0.14934782
PARLIAMENT HILL FIELDS;528290;186314;51.561123;-0.15067959
PARLIAMENT HILL FIELDS;528313;186302;51.56101;-0.15035236
FORTESS WALK;528987;185475;51.553425;-0.14093781
FORTESS WALK;528987;185374;51.552517;-0.14097482
LADY SOMERSET ROAD;529054;185650;51.554982;-0.13990782
LADY SOMERSET ROAD;529055;185623;51.554739;-0.1399033
MONNERY ROAD;529199;186172;51.55964;-0.1376259
MONNERY ROAD;529212;186185;51.559754;-0.1374337
PEMBERTON GARDENS;529280;186441;51.562039;-0.13635927
WOOD LANE / HIGHGATE STATION <>;528454;188269;51.578655;-0.14760103
PEMBERTON GARDENS;529265;186436;51.561997;-0.13657738
FERDINAND STREET;528432;184442;51.544268;-0.14931516
FERDINAND STREET;528449;184408;51.543959;-0.14908255
WOOD LANE / HIGHGATE STATION <>;528467;188262;51.578589;-0.14741608
PRINCE OF WALES ROAD;528378;184581;51.54553;-0.15004278
PRINCE OF WALES ROAD;528310;184678;51.546417;-0.15098753
QUEEN'S CRESCENT;528185;184910;51.54853;-0.15270474
GRAFTON TERRACE;528092;185109;51.550339;-0.15397285
ST DOMINIC'S PRIORY;527865;185254;51.551694;-0.1571923
MANSFIELD ROAD;527821;185325;51.552342;-0.15780079
MUSWELL HILL BROADWAY;528940;189610;51.590595;-0.14009921
MANSFIELD ROAD;527754;185459;51.553561;-0.15871798
FLEET ROAD;527623;185412;51.553169;-0.16062347
ROYAL FREE HOSPITAL;527330;185500;51.554026;-0.16481539
SOUTH END GREEN;527337;185528;51.554276;-0.16470435
KENTISH TOWN ROAD;528898;184716;51.546624;-0.14249863
KENTISH TOWN WEST STATION #;528544;184665;51.546247;-0.14761957
MUSWELL HILL;528754;189721;51.591635;-0.14274198
BROOMFIELD ROAD;518870;166435;51.384523;-0.29318604
BROOMFIELD ROAD;518875;166448;51.384639;-0.29310987
QUEENS AVENUE;528730;189745;51.591856;-0.14307945
SURBITON HEALTH CENTRE;518514;167123;51.390781;-0.29807005
SURBITON HEALTH CENTRE;518504;167101;51.390585;-0.29822104
SURBITON TELEPHONE EXCHANGE;518453;167470;51.393912;-0.29883068
HALL DRIVE;515383;181362;51.519402;-0.33840898
HALL DRIVE;515375;181333;51.519143;-0.33853371
ST PAUL'S ROAD / HIGHBURY CORNER;531784;184753;51.546291;-0.10088883
MUSWELL HILL;528743;189630;51.59082;-0.14293404
HIGHBURY CORNER;531740;184732;51.546112;-0.10153085
CRESSWELL GARDENS;526204;178443;51.490858;-0.18357306
CRESSWELL GARDENS;526150;178438;51.490825;-0.18435223
NEVERN PLACE;525442;178697;51.49331;-0.1944527
QUEENS AVENUE;528746;189617;51.590702;-0.14289552
GROSVENOR PARK ROAD;537427;188606;51.579569;-0.018055378
ST SAVIOUR'S CHURCH;536714;187927;51.573641;-0.028602835
LLOYD PARK /WILLIAM MORRIS GALLERY;537098;189812;51.590486;-0.022329907
FRIARY ROAD;520751;181277;51.517518;-0.26110801
CARLISLE AVENUE;521053;181031;51.515242;-0.25684211
FOSTER ROAD;521262;180913;51.514137;-0.25387217
PERRYN ROAD;520992;181037;51.515309;-0.25771871
FRIARY ROAD;520720;181291;51.51765;-0.26154978
EXHIBITION ROAD;526887;179673;51.501759;-0.17329874
PONT STREET;527898;179127;51.496624;-0.15893881
WALES FARM ROAD;520617;181606;51.520503;-0.2629258
HILARY ROAD;521725;180674;51.511889;-0.24728562
ST SAVIOUR'S CHURCH;521823;180389;51.509307;-0.24597248
UXBRIDGE ROAD;521873;180140;51.507058;-0.24533834
GLENDUN ROAD;521282;180724;51.512434;-0.25364905
KING FAHAD ACADEMY;521458;180753;51.512657;-0.25110408
PONT STREET;527887;179246;51.497696;-0.15905409
SHAA ROAD;521025;180537;51.510808;-0.25741485
SHAA ROAD;521060;180571;51.511106;-0.25689909
ACTON PARK / GREENVIEW CLOSE;521054;180131;51.507153;-0.25713641
ACTON PARK / GREENVIEW CLOSE;521071;180115;51.507006;-0.25689707
CHURCH STREET;526824;181968;51.522398;-0.1733811
HALL ROAD;526212;182672;51.528862;-0.18194555
CARLTON VALE;525852;183135;51.533103;-0.18696714
ST PAUL'S CHURCHYARD;532151;181046;51.512892;-0.096988989
CHEPSTOW CRESCENT;525179;180888;51.513059;-0.19746228
CHEPSTOW CRESCENT;525183;180863;51.512833;-0.19741353
WESTBOURNE GROVE / COLVILLE ROAD;524911;181023;51.514331;-0.20127453
COLVILLE ROAD;524925;180998;51.514103;-0.20108174
STANLEY GARDENS;524852;180771;51.512079;-0.20221351
CHEPSTOW VILLAS;524918;180738;51.511768;-0.2012746
ELGIN CRESCENT;524639;181030;51.514454;-0.20518984
ARUNDEL GARDENS;524680;180965;51.513861;-0.20462226
BLENHEIM CRESCENT;524427;181059;51.514761;-0.20823319
POWIS GARDENS;524790;181374;51.517512;-0.20289322
POWIS GARDENS;524831;181379;51.517548;-0.20230086
PORTOBELLO ROAD;524534;181268;51.516616;-0.20661822
PORTOBELLO ROAD;524644;181300;51.516879;-0.20502243
CHESTERTON ROAD;524183;181613;51.519794;-0.2115527
CHESTERTON ROAD;524201;181605;51.519718;-0.21129622
ST CHARLES SQUARE;524117;181784;51.521345;-0.21244328
ST CHARLES SQUARE;524129;181789;51.521387;-0.21226865
BARLBY ROAD;524028;182014;51.523432;-0.21364452
BARLBY ROAD;524041;182026;51.523537;-0.21345301
KENSAL HOUSE;523937;182246;51.525537;-0.21487398
KENSAL HOUSE;523954;182241;51.525488;-0.21463081
CAMBRIDGE GARDENS / LADBROKE GROVE;524157;181398;51.517867;-0.21200291
OXFORD GARDENS;523950;181366;51.517625;-0.21499594
OXFORD GARDENS;523926;181375;51.517711;-0.2153385
ST CHARLES SQUARE;523766;181573;51.519526;-0.21757379
CITY THAMESLINK STATION #;531730;181434;51.516477;-0.1029075
KILBURN PARK ROAD;525749;183272;51.534357;-0.18840243
NORTH POLE ROAD / SCRUBS LANE;523073;181523;51.519228;-0.22757417
LATYMER UPPER SCHOOL / PLAYING FIELDS;523040;181260;51.516871;-0.22814128
LATYMER UPPER SCHOOL / PLAYING FIELDS;522989;181236;51.516667;-0.22888428
HAMMERSMITH HOSPITAL;522586;181181;51.51626;-0.23470843
HAMMERSMITH HOSPITAL;522594;181170;51.516159;-0.23459701
CITY THAMESLINK STATION #;531672;181479;51.516895;-0.1037261
WULFSTAN STREET;522085;181104;51.515676;-0.24195172
WULFSTAN STREET;521969;181078;51.515468;-0.24363161
EAST ACTON STATION<> / FITZNEAL STREET;521683;181055;51.515323;-0.24775916
EAST ACTON STATION <>;521626;181038;51.515182;-0.24858607
WHITE CITY ESTATE;522774;181025;51.514817;-0.23205468
PHOENIX HIGH SCHOOL;522359;180935;51.514098;-0.23806355
HEMLOCK ROAD;521759;180628;51.511469;-0.24681178
STEVENTON ROAD;521825;180428;51.509657;-0.24593022
UXBRIDGE ROAD;521879;180171;51.507336;-0.24524123
CAMBRIDGE ROAD;525346;182802;51.530223;-0.19437673
WEST END LANE;525782;185288;51.552467;-0.18720703
ST CUTHBERT'S ROAD;524497;184860;51.548906;-0.20588243
FERNHEAD ROAD;524818;183044;51.532514;-0.20189876
QUEENS PARK STATION <> #;524632;183119;51.533229;-0.20455238
STATION TERRACE;523676;183095;51.533224;-0.21833642
WHITMORE GARDENS;523482;183455;51.536502;-0.22100576
OKEHAMPTON ROAD;523384;183575;51.537601;-0.222376
OKEHAMPTON ROAD;523406;183566;51.537516;-0.22206211
ALL SOULS AVENUE;523132;183949;51.541018;-0.22587689
ALL SOULS AVENUE;523186;183876;51.54035;-0.22512416
HANOVER ROAD;523153;184147;51.542792;-0.22550502
HANOVER ROAD;523173;184148;51.542797;-0.22521642
WILLESDEN GREEN LIBRARY;522929;184581;51.546742;-0.22858201
WILLESDEN GREEN LIBRARY;522954;184572;51.546655;-0.2282248
KINGSLEY ROAD;524784;183980;51.540934;-0.20205723
KINGSLEY ROAD;524833;183977;51.540896;-0.20135211
PLYMPTON AVENUE;524522;184041;51.54154;-0.20581162
PLYMPTON AVENUE;524475;184070;51.541811;-0.20647874
CHRISTCHURCH;524086;184353;51.54444;-0.21198545
GALPINS ROAD;530981;168601;51.401325;-0.11844453
CHRISTCHURCH;524265;184279;51.543735;-0.2094316
DEERHURST ROAD;523913;184448;51.545331;-0.2144455
DEERHURST ROAD;523933;184447;51.545318;-0.21415759
SIDMOUTH ROAD;523620;184580;51.546582;-0.21862232
YATES COURT;523758;184550;51.546282;-0.21664375
SIDMOUTH ROAD;523489;184614;51.546916;-0.22049862
LIDDELL GARDENS;523436;183469;51.536637;-0.22166375
COLLEGE ROAD;523138;183380;51.535903;-0.22598927
COLLEGE ROAD;523038;183364;51.535781;-0.22743591
DOYLE GARDENS;522860;183408;51.536215;-0.22998565
DOYLE GARDENS;522844;183407;51.536209;-0.23021657
ALL SOULS AVENUE;522632;183142;51.533874;-0.23336386
ALL SOULS AVENUE;522566;183124;51.533726;-0.23432118
FURNESS ROAD;522332;183276;51.535143;-0.23764035
FURNESS ROAD;522405;183229;51.534705;-0.23660471
HARLESDEN ROAD;522150;183450;51.536746;-0.24020274
HARLESDEN ROAD;522140;183442;51.536676;-0.24034962
ST MARY'S HOSPITAL;526900;181414;51.517402;-0.17248557
PADDINGTON STATION <> #;526682;181196;51.515492;-0.17570399
QUEENSWAY;525667;181184;51.515611;-0.19032815
PORCHESTER ROAD / ROYAL OAK;525824;181320;51.516798;-0.18801824
ORCHARDSON STREET;526650;182131;51.523902;-0.17582919
HALL ROAD;526279;182577;51.527993;-0.18101425
CARLTON VALE;525857;183103;51.532814;-0.18690652
KILBURN PARK ROAD;525691;183316;51.534765;-0.18922251
ST STEPHENS GARDENS;525245;181503;51.518571;-0.19629335
ST STEPHENS GARDENS;525271;181438;51.517981;-0.19594191
SHREWSBURY ROAD / BRUNEL ESTATE;525158;181540;51.518923;-0.19753345
GREAT WESTERN ROAD;525054;181476;51.518371;-0.19905426
BRUNEL ESTATE;525060;181540;51.518944;-0.19894514
ALVANLEY COURT;525764;185311;51.552678;-0.18745829
WESTBOURNE PARK STATION <>;524915;181792;51.521241;-0.20094462
WESTBOURNE PARK STATION <>;524988;181686;51.520273;-0.19993056
QUEENS PARK STATION <> #;524566;183080;51.532894;-0.20551719
ELGIN AVENUE;525464;182346;51.526098;-0.1928388
ELGIN AVENUE;525453;182371;51.526326;-0.19298838
TRAFALGAR AVENUE;533907;178156;51.486509;-0.072794799
SUTHERLAND AVENUE;525748;182135;51.524139;-0.1888224
CHARFIELD COURT;525781;182126;51.524051;-0.18835019
MALDEN ROAD;528289;184690;51.546529;-0.15128583
TOLWORTH BROADWAY;519702;165945;51.379944;-0.28140064
NILE TERRACE;533824;178098;51.486007;-0.074011444
CORNWALL GARDENS;526196;179051;51.496324;-0.18347103
SOUTHBOROUGH LIBRARY;542276;167608;51.389684;0.043424806
CHIPSTEAD VALLEY ROAD / BRIGHTON ROAD;529785;159604;51.320745;-0.1389084
CANONS CORNER;518249;192863;51.622174;-0.29325476
CANONS CORNER;518216;192780;51.621435;-0.29375921
TURNHAM GREEN STATION <>;521208;178744;51.494655;-0.25539463
TURNHAM GREEN STATION <>;521218;178795;51.495111;-0.25523315
THE BROADWAY;530947;190376;51.597016;-0.11085865
CRESSY ROAD;527558;185565;51.554558;-0.16150504
BROADFIELDS AVENUE;519744;192461;51.618245;-0.27180681
BROADFIELDS AVENUE;519670;192384;51.617569;-0.27290142
CHELSEA VILLAGE;525611;177258;51.48034;-0.1925311
ALEXANDRA PARK;529383;189200;51.586809;-0.13385898
ALEXANDRA PARK;529401;189186;51.586679;-0.13360447
ALEXANDRA PALACE & PARK;529462;189279;51.587501;-0.13269022
ALEXANDRA PALACE & PARK;529455;189260;51.587332;-0.1327982
MELBOURNE AVENUE;516348;180335;51.509974;-0.3248457
EASTMAN DENTAL HOSPITAL;530664;182521;51.526493;-0.11785897
WOOD GREEN STATION<> / RIVER PARK ROAD;530953;190390;51.597141;-0.11076686
PALACE GATE;526218;179624;51.501468;-0.18294949
EAST HAM / WHITE HORSE;542746;182946;51.52739;0.056360761
PURLEY TESCO;531168;161436;51.336892;-0.11839929
LYONSDOWN ROAD;525923;195242;51.64189;-0.18160501
CARLTON HILL;526198;183466;51.536;-0.18186299
GROVE END ROAD;526648;182941;51.531182;-0.17556704
CAVENDISH AVENUE;526738;183078;51.532393;-0.174221
CIRCUS ROAD / WELLINGTON ROAD;526766;183130;51.532854;-0.17379885
BOUNDARY ROAD;526607;183952;51.540277;-0.17579458
HALL ROAD;526576;182831;51.530209;-0.17664397
HALL ROAD / MAIDA VALE;526323;182685;51.528954;-0.18034161
HALL ROAD / MAIDA VALE;526318;182663;51.528757;-0.18042153
GROVE END ROAD;526509;182818;51.530107;-0.17761399
EAMONT STREET;527314;183197;51.533333;-0.16587844
EAMONT STREET;527343;183228;51.533605;-0.16544937
WELLS RISE;527698;183510;51.536059;-0.16023187
PRIMROSE HILL;527809;183571;51.536582;-0.15861023
LYNDALE AVENUE;525074;186146;51.560335;-0.19710837
CHALK FARM MORRISONS;528491;184286;51.542853;-0.14852173
GLOUCESTER AVENUE;528564;183680;51.53739;-0.14769078
GLOUCESTER AVENUE;528587;183682;51.537403;-0.14735861
KENSINGTON PALACE;525882;179702;51.502244;-0.18775988
FAIRFAX ROAD / LOUDOUN ROAD;526261;184077;51.541477;-0.18073619
LOUDOUN ROAD;526227;184053;51.541269;-0.1812348
WINCHESTER ROAD;527007;184233;51.542712;-0.16992867
LOWER MERTON RISE;527086;184241;51.542766;-0.16878721
ELSWORTHY RISE;527318;184306;51.543298;-0.16542007
ELSWORTHY RISE;527326;184296;51.543206;-0.16530839
UPTON PARK / GREEN STREET;541355;183221;51.530211;0.03643277
PRIMROSE HILL ROAD;527476;184329;51.543469;-0.16313459
PRIMROSE HILL ROAD;527592;184366;51.543775;-0.16144934
ETON ROAD;527814;184384;51.543887;-0.15824323
ETON ROAD;527739;184367;51.543751;-0.15933034
CHALK FARM STATION <>;528106;184401;51.543974;-0.15402859
CHALK FARM STATION <>;528094;184390;51.543878;-0.15420554
BURRARD ROAD;525306;185664;51.555952;-0.19393499
LANGLAND GARDENS;525932;185191;51.551562;-0.1850794
LANGLAND GARDENS;525935;185215;51.551777;-0.18502757
O2 CENTRE;526270;184793;51.54791;-0.1803498
SWISS COTTAGE STN <> /  FINCHLEY RD;526637;184275;51.543173;-0.17524612
BOUNDARY ROAD;526616;183842;51.539286;-0.17570441
BERMONDSEY STATION <>;534378;179457;51.498088;-0.065520496
WEST HAMPSTEAD POLICE STATION;525273;185349;51.553129;-0.19452284
WEST END GREEN;525458;185161;51.551398;-0.19192292
WEST END GREEN;525468;185169;51.551468;-0.19177591
DENNINGTON PARK ROAD;525484;184970;51.549676;-0.19161619
DENNINGTON PARK ROAD;525495;184988;51.549835;-0.19145121
WOODCHURCH ROAD;525396;184199;51.542766;-0.19315919
PRIORY ROAD;525707;183954;51.540495;-0.18876434
ROSSLYN HILL;527091;185429;51.553441;-0.16828641
ROSSLYN HILL;527078;185355;51.552779;-0.16850052
BELSIZE PARK STATION <>;527317;185115;51.550569;-0.16514202
ROSSLYN HILL / POND STREET;527163;185300;51.552266;-0.16729507
UPPER PARK ROAD;527483;184969;51.549219;-0.16280204
GRIGGS PLACE;533331;179246;51.49644;-0.080674271
BELSIZE PARK STATION <>;527313;185135;51.550749;-0.16519245
ENGLAND'S LANE;527567;184645;51.546288;-0.16170861
PRIMROSE GARDENS;527556;184617;51.546039;-0.1618773
PRIMROSE HILL ROAD;527502;184408;51.544173;-0.16273127
PRIMROSE HILL ROAD;527511;184428;51.544351;-0.16259432
BEXLEYHEATH STATION #;548259;176101;51.464467;0.13290182
BEXLEYHEATH STATION #;548253;176126;51.464693;0.13282599
PICKFORD LANE / BOWFORD AVENUE;548345;176565;51.468614;0.13433349
PICKFORD LANE / BOWFORD AVENUE;548320;176514;51.468162;0.13395245
BRAMPTON ROAD / LONG LANE;547793;177161;51.474113;0.12664129
LONG LANE / BRAMPTON ROAD;547846;177120;51.473731;0.12738671
DANSON ROAD / CROOK LOG;547630;175446;51.458746;0.12358038
THE GROVE;547606;175223;51.456748;0.12314219
THE GROVE;547589;175143;51.456034;0.12286433
DANSON UNDERPASS;547383;174404;51.449447;0.11959393
DANSON ROAD / SANDHURST ROAD;547579;174632;51.451445;0.1225075
GRANGE ROAD / CALEDONIAN MARKET;533220;179239;51.496403;-0.082274973
BLENDON / PENHILL ROAD;547259;174225;51.447871;0.11773633
MONTPELIER ROAD;531703;162022;51.342035;-0.110507
MONTPELIER ROAD;531803;162130;51.342982;-0.10903218
GALLEY LANE;523350;196360;51.652507;-0.21837564
BARNET HOSPITAL / QUEENS ROAD;523706;196415;51.652924;-0.21321292
BARNET HOSPITAL / QUEENS ROAD;523659;196402;51.652817;-0.21389655
UNION STREET;524114;196438;51.65304;-0.20731018
MANOR ROAD;524255;196422;51.652865;-0.20527876
GRANGE ROAD / CALEDONIAN MARKET;533290;179310;51.497025;-0.081240392
STAMFORD HILL BROADWAY;533733;187779;51.573025;-0.071648638
GALLEYWALL ROAD / SOUTH BERMONDSEY STN#;534925;178466;51.489053;-0.058023698
BEAMISH HOUSE;535036;178531;51.48961;-0.056401077
ROTHERHITHE NEW RD / STH BERMONDSEY STN#;534975;178453;51.488924;-0.057308943
PUTNEY BRIDGE STN <>/ GONVILLE STREET;524304;175857;51.468038;-0.21183505
UPNEY LANE;545205;185030;51.545489;0.092642038
UPNEY LANE;545198;185007;51.545284;0.092531679
FINCHLEY ROAD & FROGNAL STATION #;526082;185049;51.550253;-0.18296798
STATION ROAD;505406;182307;51.529844;-0.48186548
STATION ROAD;505385;182316;51.529929;-0.48216541
COWLEY MILL ROAD;505353;183253;51.538357;-0.48234649
COWLEY MILL ROAD;505375;183249;51.538317;-0.4820306
FINCHLEY ROAD & FROGNAL STATION #;526126;185034;51.550108;-0.1823391
BRICKFIELD LANE;521749;195210;51.642521;-0.24190612
STAMFORD HILL BROADWAY;533749;187793;51.573147;-0.071412576
WEMBLEY TRIANGLE;518767;185247;51.553618;-0.28835005
BRICKFIELD LANE;521733;195182;51.642273;-0.24214696
GLEBE LANE;522155;195564;51.645614;-0.23591821
FARNBOROUGH HILL / BUS GARAGE;545508;163977;51.356239;0.088357469
FARNBOROUGH HILL / BUS GARAGE;545509;163992;51.356373;0.088377951
VAUXHALL PARK;530402;177756;51.483732;-0.12339368
BARNET CHURCH / WOOD STREET;524508;196450;51.653061;-0.2016136
BOXLEY STREET;540677;180100;51.502335;0.025420505
MIDDLE PARK AVENUE / WESTHORNE AVENUE;541577;174501;51.451799;0.03613661
ELTHAM GREEN SCHOOL;541588;174519;51.451958;0.036302008
ST JOHN STREET / CLERKENWELL ROAD;531756;182189;51.523256;-0.10225098
PERCIVAL STREET;531662;182353;51.524752;-0.10354388
PERCIVAL STREET;531617;182409;51.525265;-0.10417125
SPENCER STREET / CITY UNIVERSITY;531571;182643;51.527379;-0.10474661
SPENCER STREET / CITY UNIVERSITY;531609;182598;51.526966;-0.10421595
FRIEND STREET / SADLER'S WELLS THEATRE;531570;182822;51.528988;-0.10469422
ROSEBERY AVENUE / SADLER'S WELLS THEATRE;531550;182878;51.529496;-0.10496147
HIGH STREET / ORPINGTON WAR MEMORIAL;546110;165958;51.373885;0.097810381
HIGH STREET / ORPINGTON WAR MEMORIAL;546138;165988;51.374147;0.0982247
ARLINGTON CRESCENT;536054;199989;51.682189;-0.033438756
BULLSMOOR LANE / MOLLISON AVENUE;536025;199858;51.681019;-0.033908957
BULLSMOOR LANE;536015;199570;51.678434;-0.034165598
OAKHURST ROAD;535805;199166;51.674854;-0.037357948
TOTTERIDGE ROAD;535749;199059;51.673906;-0.03820887
TURKEY STREET STATION #;535611;198765;51.671298;-0.040317394
ALBANY LEISURE CENTRE;535552;198488;51.668823;-0.041277442
TURKEY STREET STATION #;535565;198659;51.670356;-0.041023283
INGERSOLL ROAD;535381;198087;51.66526;-0.043903827
INGERSOLL ROAD;535413;198140;51.665729;-0.043420905
DURANTS SCHOOL;535288;197865;51.663288;-0.045333549
CARTERHATCH LANE;535223;197559;51.660554;-0.046391045
OATLANDS ROAD;535231;197640;51.66128;-0.046244146
OATLANDS ROAD;535270;197721;51.661998;-0.045649322
ENFIELD COLLEGE;535136;196684;51.652712;-0.047985973
ENFIELD COLLEGE;535166;196648;51.652381;-0.047566491
SOUTHBURY ROAD;535242;196144;51.647834;-0.046663304
SOUTHBURY ROAD;535247;196094;51.647384;-0.046610395
ORCHARD ROAD;535237;195581;51.642776;-0.046952961
PONDERS END PARK;535278;195803;51.644761;-0.046275044
ORCHARD ROAD;535230;195457;51.641664;-0.04710194
TRAMWAY AVENUE;534915;194794;51.635781;-0.051906717
TRAMWAY AVENUE;534900;194742;51.635318;-0.05214335
BURY STREET;534693;194306;51.631449;-0.055300157
FOREST ROAD / JUBILEE PARK;534752;194419;51.632451;-0.05440478
BOUNCES ROAD;534626;193934;51.628123;-0.05641049
BOUNCES ROAD;534640;194079;51.629422;-0.056152654
AMHURST PARK / STAMFORD LODGE;533534;187859;51.573791;-0.074488049
EDMONTON GREEN POLICE STATION;534285;193321;51.622695;-0.061568796
EDMONTON GREEN POLICE STATION;534302;193319;51.622673;-0.061324139
SHRUBBERY ROAD;534252;193120;51.620897;-0.062122165
SHRUBBERY ROAD;534273;193148;51.621144;-0.061808284
ANGEL CORNER;534122;192590;51.616165;-0.064201551
BRETTENHAM ROAD;534202;192837;51.618366;-0.06295227
NUTFIELD CLOSE;533990;191874;51.609763;-0.066380388
COLYTON WAY;534089;192119;51.611941;-0.064857927
BRANTWOOD ROAD;533891;191701;51.608232;-0.06787523
NUTFIELD CLOSE;533986;191823;51.609305;-0.066457592
WHITE HART LANE STATION #;533873;191351;51.605091;-0.068268519
TOTTENHAM HOTSPUR FOOTBALL CLUB;533891;191193;51.603667;-0.068069028
TOTTENHAM HOTSPUR FOOTBALL CLUB;533906;191178;51.603528;-0.067858289
SWINTON STREET;530499;182823;51.529245;-0.12012429
TOTTENHAM HIGH ROAD / BRUCE GROVE STN #;533813;190010;51.593055;-0.069645468
PORTMORE GARDENS;549412;192110;51.608006;0.15627579
WOOD GREEN STATION <>;531069;190397;51.597177;-0.10909048
PARSONS GREEN;525186;176403;51.47275;-0.19895074
STAMFORD HILL BROADWAY;533674;187697;51.572302;-0.072530651
WENTWORTH WAY;534669;160214;51.325092;-0.068632335
WENTWORTH WAY;534589;160342;51.326262;-0.069731486
SANDERSTEAD RECREATION GROUND;534174;160887;51.331257;-0.075479005
BROMLEY COMMON / THE CROWN;541654;167646;51.390181;0.034506539
SANDERSTEAD RECREATION GROUND;534178;160943;51.33176;-0.075400551
PURLEY DOWNS ROAD;533658;161639;51.338137;-0.082599166
PURLEY DOWNS ROAD;533702;161607;51.337839;-0.081979888
SANDERSTEAD UNITED REFORMED CHURCH;533465;161862;51.340186;-0.085284694
BEECHWOOD ROAD;532929;162508;51.346117;-0.092734243
BEECHWOOD ROAD;532966;162464;51.345713;-0.092219719
SANDERSTEAD STATION #;532943;162816;51.348882;-0.092418403
BRAMBLEDOWN ROAD;532982;163064;51.351101;-0.091766132
BRAMBLEDOWN ROAD;532982;163139;51.351775;-0.091738128
GROVELANDS ROAD;530952;161129;51.334183;-0.12161107
GROVELANDS ROAD;530851;161013;51.333163;-0.12310263
COULSDON TOWN STATION #;529965;159780;51.322285;-0.13626267
COULSDON SOUTH STATION #;529816;158971;51.315049;-0.13869407
COULSDON SOUTH STATION #;529818;159015;51.315444;-0.13864938
STONEYFIELD ROAD;530900;158683;51.312213;-0.12325461
STONEYFIELD ROAD;530926;158648;51.311892;-0.12289462
STOATS NEST VILLAGE;530472;159905;51.323293;-0.12894517
WALNUTS CENTRE;546271;166319;51.377087;0.10027031
HIGH STREET / CHURCH HILL;546420;166563;51.379241;0.10251011
CARLTON PARADE;546728;166884;51.382046;0.107065
VAUXHALL PARK;530426;177735;51.483538;-0.12305599
HANWELL BROADWAY;515508;180177;51.508726;-0.3369961
PURLEY LIBRARY;531166;161635;51.338681;-0.11835475
CHAPLIN ROAD;518077;184909;51.550725;-0.29841093
PEMBRIDGE VILLAS;525310;181061;51.514584;-0.19551403
KENSINGTON HIGH STREET / EARLS COURT RD;525092;179296;51.498771;-0.19927948
CHEPSTOW ROAD;525288;181095;51.514895;-0.19581884
CHEPSTOW ROAD / WESTBOURNE GROVE;525378;181126;51.515153;-0.19451149
ARCHWAY STATION <> / JUNCTION ROAD;529364;186757;51.564859;-0.13503196
ARTESIAN ROAD;525313;181200;51.515833;-0.19542145
PALACE GARDENS TERRACE;525468;180523;51.509714;-0.19342955
NOTTING HILL GATE STATION <>;525383;180473;51.509284;-0.19467148
GREYHOUND TERRACE;529359;169831;51.412751;-0.14130049
PALACE GARDEN TERRACE / NOTTING HILL GTE;525432;180453;51.509093;-0.1939729
ROWAN CRESCENT;529443;169685;51.41142;-0.14014656
LONGTHORNTON ROAD;529354;169509;51.409859;-0.14148969
ROWAN CRESCENT;529415;169651;51.411121;-0.14056133
LONGTHORNTON ROAD;529309;169446;51.409303;-0.1421593
STREATHAM PARK CEMETERY;529308;169354;51.408476;-0.14220718
NORTHBOROUGH ROAD;529657;168824;51.403633;-0.13738568
NORTHBOROUGH ROAD;529656;168901;51.404326;-0.13737193
SHERWOOD PARK ROAD;529189;168456;51.400433;-0.14424392
ST JAMES ROAD;528390;169954;51.414077;-0.15518172
ST JAMES ROAD;528394;169931;51.413869;-0.15513255
NOTTING HILL GATE STATION <> / HILLGATE STREET;525127;180417;51.508837;-0.19837824
MANSHIP ROAD;528211;169795;51.412688;-0.15781169
LOCKS LANE;528008;169627;51.411224;-0.16078965
INMAN ROAD;526205;173477;51.446228;-0.18533023
INMAN ROAD;526201;173445;51.445941;-0.18539916
BROCKLEBANK ROAD;526335;173724;51.448419;-0.18337247
BROCKLEBANK ROAD;526322;173674;51.447973;-0.18357728
NOTTING HILL GATE STATION <> / HILLGATE STREET;525129;180396;51.508648;-0.19835688
ST ANN'S HILL;526446;173909;51.450057;-0.18170995
ST ANN'S HILL;526444;173928;51.450228;-0.18173193
WINDMILL ROAD;526804;174474;51.455054;-0.17635845
WINDMILL ROAD;526813;174509;51.455367;-0.17621645
MARCILLY ROAD;526526;174810;51.458136;-0.18023732
ALEXANDER COURT;526430;174733;51.457466;-0.18164585
NOTTING HILL GATE STN <> / PEMBRIDGE RD;525193;180491;51.509488;-0.19740147
WEST SIDE;526642;174463;51.454992;-0.17869271
WINDMILL ROAD;526773;174206;51.452653;-0.17690033
WINDMILL ROAD;526795;174232;51.452882;-0.17657458
COUNTY ARMS;526924;173975;51.450543;-0.17481115
COUNTY ARMS;526996;173910;51.449943;-0.17379887
NOTTING HILL GATE STATION <>;525216;180466;51.509258;-0.19707909
ROUTH ROAD;527158;173637;51.447453;-0.17156683
ROUTH ROAD;527176;173626;51.44735;-0.17131189
BURNTWOOD LANE;527446;173183;51.443308;-0.16758807
BURNTWOOD LANE;527383;173301;51.444383;-0.16845164
BRODRICK ROAD;527578;172972;51.441382;-0.16576576
EATONVILLE ROAD;527757;172688;51.43879;-0.16329408
UPPER TOOTING PARK;527687;172819;51.439983;-0.16425344
LADBROKE ROAD;525121;180558;51.510106;-0.19841466
EATONVILLE ROAD;527793;172654;51.438476;-0.16278868
ST ANSELM'S CHURCH;528104;172322;51.435422;-0.1584367
MONTANA ROAD;528330;172142;51.433754;-0.15525236
MONTANA ROAD;528380;172102;51.433383;-0.15454795
FRANCISCAN ROAD;528675;171957;51.432013;-0.15035916
FRANCISCAN ROAD;528548;171992;51.432356;-0.15217238
TOOTING BEC ATHLETICS TRACK;528983;171875;51.431206;-0.14596081
TOOTING BEC ATHLETICS TRACK;528904;171879;51.43126;-0.14709513
TOOTING BEC LIDO;529345;171832;51.430737;-0.14077204
TOOTING BEC LIDO;529319;171822;51.430653;-0.14114949
BURNTWOOD SCHOOL / SWABY ROAD;526579;172617;51.438416;-0.18025861
BURNTWOOD SCHOOL / SWABY ROAD;526603;172623;51.438464;-0.17991136
OPENVIEW;526731;172752;51.439595;-0.17802465
OPENVIEW;526768;172760;51.439659;-0.17748973
TILEHURST ROAD;526967;172895;51.440828;-0.17457977
TILEHURST ROAD;526951;172872;51.440624;-0.17481809
MARHAM GARDENS;527177;173014;51.44185;-0.17151722
MARHAM GARDENS;527159;172988;51.44162;-0.1717854
TRINITY ROAD;527368;173207;51.443542;-0.16870116
BELLEVUE ROAD / TRINITY ROAD;527432;173260;51.444003;-0.16776171
RAMSDEN ROAD;528182;174001;51.450494;-0.15670773
ROBERT STREET;529221;182740;51.528793;-0.13856781
CAVENDISH ROAD POLICE STATION;529164;174265;51.452643;-0.1424873
CAVENDISH ROAD POLICE STATION;529135;174274;51.452731;-0.14290115
RUDLOE ROAD;529277;174051;51.450694;-0.14094008
RUDLOE ROAD;529232;174058;51.450767;-0.14158476
POYNDERS ROAD / KINGS AVENUE;529852;173784;51.448163;-0.13276775
ATKINS ROAD / NEW PARK ROAD;530113;173679;51.44716;-0.12905258
ATKINS ROAD / NEW PARK ROAD;530079;173678;51.447159;-0.12954193
STREATHAM PLACE;530310;173565;51.44609;-0.12626129
ROBERT STREET;529213;182582;51.527375;-0.13874098
CLAPHAM COMMON OLD TOWN;529120;175422;51.463051;-0.14269816
BEDFORD ROAD;530030;175067;51.459653;-0.12973654
LYHAM ROAD;530082;174870;51.45787;-0.12906088
LYHAM ROAD;530091;174840;51.457599;-0.12894244
CLARENCE AVENUE;530080;174634;51.45575;-0.12917637
SILVERDALE;529213;182957;51.530745;-0.13860353
CLARENCE AVENUE;530058;174505;51.454596;-0.12954022
THORNCLIFFE ROAD;529996;174177;51.451662;-0.13055246
THORNCLIFFE ROAD;529992;174096;51.450935;-0.13063972
ATKINS ROAD;529882;173646;51.446916;-0.13238689
KINGS AVENUE / ATKINS ROAD;529936;173829;51.448549;-0.13154314
SILVERDALE;529191;182962;51.530795;-0.13891868
LEXTON GARDENS;529818;173389;51.444621;-0.13340151
NEW PARK ROAD;529888;173155;51.442502;-0.13248062
NEW PARK ROAD;529823;173288;51.443713;-0.13336661
CRIFFEL AVENUE;529926;172927;51.440445;-0.13201777
CRIFFEL AVENUE;529953;172884;51.440052;-0.13164529
STREATHAM HILL STATION #;530226;172735;51.438651;-0.12777441
STREATHAM COMMON STATION #;529652;170339;51.41725;-0.13690414
STREATHAM COMMON STATION #;529631;170337;51.417236;-0.1372067
BRAESIDE ROAD;529429;170085;51.415018;-0.14020187
GREAT SMITH STREET / WESTMINSTER ABBEY;529800;179405;51.49869;-0.13145265
CAMDEN HIGH STREET;529060;183595;51.536513;-0.14057437
BRAESIDE ROAD;529486;170153;51.415616;-0.13935786
GREYHOUND TERRACE;529345;169929;51.413635;-0.14146596
STREATHAM ST LEONARD'S CHURCH;529941;171578;51.428318;-0.1322966
STREATHAM / ST LEONARD'S CHURCH;529973;171590;51.428419;-0.13183217
AMBLESIDE AVENUE;529821;171480;51.427465;-0.13405759
AMBLESIDE AVENUE;529797;171451;51.42721;-0.13441323
CONYERS ROAD;529681;171399;51.426769;-0.13609982
CONYERS ROAD;529649;171359;51.426417;-0.13657446
ALDRINGTON ROAD;529369;171196;51.425016;-0.14065903
ALDRINGTON ROAD;529391;171201;51.425056;-0.14034096
DAHOMEY ROAD;529081;170804;51.421559;-0.1449417
DAHOMEY ROAD;529103;170818;51.42168;-0.14462037
WHEATSHEAF LANE;530337;177550;51.481896;-0.1244052
THORNE ROAD;530427;176984;51.476789;-0.12331866
MURRAY STREET;529384;184451;51.544132;-0.13559115
LANSDOWNE WAY;530447;176825;51.475355;-0.12308949
STOCKWELL GREEN;530736;176074;51.46854;-0.11920819
IRVING GROVE;530687;176195;51.469638;-0.11986852
STOCKWELL GREEN;530762;176056;51.468372;-0.11884074
MURRAY STREET;529376;184462;51.544232;-0.13570241
SOLON ROAD;530404;175076;51.459648;-0.12435296
SOLON ROAD;530388;175061;51.459516;-0.12458866
BELVEDERE PLACE;530717;175149;51.460231;-0.11982328
BELVEDERE PLACE;530689;175122;51.459995;-0.12023605
MARCILLY ROAD;526642;174839;51.458371;-0.17855821
SPENCER ROAD;526854;174853;51.458449;-0.17550341
SPENCER ROAD;526908;174883;51.458707;-0.17471582
SPENCER PARK;526949;174842;51.458329;-0.17414071
BOLINGBROKE GROVE;527102;175001;51.459724;-0.1718826
CAMDEN PARK ROAD;529661;184784;51.547061;-0.13147631
BOLINGBROKE GROVE;527192;175043;51.460081;-0.17057276
ECCLES ROAD;527731;175169;51.461092;-0.16277313
ECCLES ROAD;527707;175150;51.460927;-0.16312526
SISTERS AVENUE;528023;175208;51.461377;-0.15855817
FORTHBRIDGE ROAD;528354;175210;51.46132;-0.15379551
FORTHBRIDGE ROAD;528319;175198;51.46122;-0.15430339
CEDARS ROAD;528616;175221;51.461359;-0.15002225
TORRIANO AVENUE;529610;184747;51.54674;-0.13222501
RAVENSLEA ROAD;527753;173781;51.448613;-0.16295746
RAVENSLEA ROAD;527772;173782;51.448618;-0.16268383
RUSHAM ROAD;528070;173961;51.45016;-0.1583331
RUSHAM ROAD;527936;173886;51.449516;-0.16028752
RAMSDEN ROAD;528272;174055;51.450959;-0.15539369
THURLEIGH AVENUE;528492;174256;51.452715;-0.15215644
SALCOTT ROAD;527518;174802;51.457842;-0.16596967
SALCOTT ROAD;527543;174744;51.457315;-0.16563093
HILLDROP ROAD;529992;185225;51.550948;-0.12654271
DARLEY ROAD;527655;174398;51.45418;-0.16414454
DARLEY ROAD;527643;174448;51.454632;-0.16429912
GORST ROAD;527502;174174;51.452202;-0.166426
BLENKARNE ROAD;527563;174070;51.451253;-0.16558606
BRIGHTON ROAD / OLD LODGE LANE;530783;160892;51.332092;-0.12412255
GRANARD ROAD;527659;173848;51.449237;-0.16428527
HILLDROP ROAD;529987;185240;51.551084;-0.12660925
GRANARD ROAD;527687;173814;51.448925;-0.16389481
BATTERSEA BRIDGE / HESTER ROAD;527075;177231;51.479771;-0.17146995
BATTERSEA BRIDGE / HESTER ROAD;527103;177219;51.479657;-0.17107128
PARKGATE ROAD;527218;177013;51.47778;-0.16949028
PARKGATE ROAD;527171;177104;51.478608;-0.17013396
PRINCE OF WALES DRIVE;527444;176640;51.474377;-0.16637216
PETWORTH STREET;527355;176810;51.475924;-0.16759172
THE PARADE / COTMAN GARDENS;519280;190180;51.597844;-0.27928085
THE PARADE;519344;190188;51.597902;-0.27835458
HARROW VIEW;514622;189470;51.592429;-0.34673207
HARROW VIEW;514698;189504;51.592719;-0.34562434
SHIRLEY OAKS ROAD;535740;165714;51.374264;-0.051174961
WEIR HALL GARDENS;532571;192448;51.615256;-0.086643603
CHAMBERS ROAD;530255;185679;51.554967;-0.12258372
KINGSTON UNIVERSITY / COUNTY HALL;518050;168657;51.404665;-0.30422588
AMHURST ROAD / HACKNEY DOWNS STATION #;534722;185093;51.548653;-0.058414678
KINGSTON UNIVERSITY / COUNTY HALL;518057;168612;51.404259;-0.30414026
HYLAND WAY;552765;187407;51.564852;0.20261376
HYLAND WAY;552713;187387;51.564686;0.20185544
LEIGHAM COURT RD / STREATHAM HILL STN #;530309;172630;51.437688;-0.12661955
LEIGHAM COURT RD / STREATHAM HILL STN #;530322;172635;51.43773;-0.12643079
HORNSEY ROAD;530701;186229;51.559807;-0.11595007
FAIRLAWN AVENUE;527345;189471;51.589709;-0.16316119
BEACONSFIELD ROAD;528034;193162;51.622722;-0.1518745
BEACONSFIELD ROAD;528044;193177;51.622855;-0.15172465
THORNTON HEATH POND / FAIRLANDS AVENUE;531235;167727;51.393412;-0.11511812
THORNTON HEATH POND / FAIRLANDS AVENUE;531194;167670;51.39291;-0.11572813
TALBOT ROAD;532786;168148;51.396835;-0.092681079
PAWSONS ROAD;532722;167732;51.393112;-0.0937559
PAWSONS ROAD;532716;167781;51.393554;-0.093823784
TALBOT ROAD;532802;168123;51.396607;-0.092460573
ELTHAM HIGH STREET / POUND PLACE;543149;174439;51.450847;0.058719613
ELTHAM HIGH STREET / ELM TERRACE;543125;174421;51.450691;0.058367185
THE WOOLWICH CENTRE;543495;178752;51.489515;0.065445254
DURHAM ROAD;531042;186491;51.562082;-0.11093623
EFFRA PARADE;531490;174944;51.45821;-0.10877921
FRANLAW CRESENT;532429;192591;51.616575;-0.088639323
OSTLIFFE ROAD;532445;192548;51.616185;-0.0884246
CHEQUERS WAY;531798;192491;51.615824;-0.097785415
CHEQUERS WAY;531993;192509;51.61594;-0.094963854
HEYSHAM ROAD;532872;188157;51.576625;-0.083922383
EDGWARE ROAD STATION <>;526981;181769;51.520574;-0.17119103
HEYSHAM ROAD;532900;188231;51.577284;-0.083490585
ELIZABETH ROAD;533344;188659;51.581025;-0.076924657
BIRSTALL ROAD / SEVEN SISTERS STN <> #;533448;188748;51.5818;-0.075390809
WILTON ROAD;528419;190568;51.599323;-0.14726549
WILTON ROAD;528402;190640;51.599974;-0.14748447
CONSTABLE CLOSE;527572;192174;51.613948;-0.15890401
CONSTABLE CLOSE;527595;192095;51.613233;-0.15860074
FRIARY ROAD;527293;192904;51.620572;-0.16266637
FRIARY ROAD;527272;192951;51.620999;-0.16295249
WEMBLEY STADIUM STATION #;518918;185470;51.55559;-0.28609781
ICKNIELD DRIVE;543762;188808;51.579805;0.073390643
GANTSHILL CRESCENT;543762;188890;51.580542;0.073424182
GREENFORD STATION <> #;514788;183864;51.542011;-0.34616602
HORNIMAN MUSEUM;534746;173068;51.440587;-0.06265595
HONOR OAK ROAD;535073;173056;51.440401;-0.057958528
FOREST HILL STATION # / LONDON ROAD;535304;172944;51.43934;-0.054679722
DUNRAVEN SCHOOL;530576;172296;51.434625;-0.12290346
LEIGHAM COURT ROAD / VALLEY ROAD;531019;172095;51.432716;-0.11660838
VALLEY ROAD;530819;172154;51.433293;-0.11946205
ROCKHAMPTON ROAD;531177;171863;51.430595;-0.11442263
JULIAN'S PRIMARY SCHOOL;531171;171544;51.42773;-0.1146269
ALBERT CARR GARDENS;530214;171014;51.423187;-0.12857906
VALLEY ROAD;530581;171033;51.423273;-0.1232967
THE ROOKERY;530788;171015;51.423064;-0.12032786
LEIGHAM COURT ROAD;531137;171088;51.423639;-0.11528429
STREATHAM COMMON NORTH / LEIGHAM CRT RD;531262;171049;51.42326;-0.11350193
ALBERT CARR GARDENS;530227;171034;51.423364;-0.12838485
VALLEY ROAD;530465;171055;51.423498;-0.12495603
THE ROOKERY;530881;171048;51.423339;-0.11897889
CROWN POINT;531666;171006;51.42278;-0.10771072
TIVOLI ROAD;532126;170995;51.422574;-0.10110279
SALTER'S HILL;532577;171027;51.422757;-0.094608227
HERMITAGE ROAD;532802;170909;51.421644;-0.091418284
ROCKMOUNT ROAD;532983;170765;51.420307;-0.088870663
GRECIAN CRESCENT;531762;170746;51.420421;-0.1064274
CONVENT HILL;532110;170530;51.418399;-0.10150595
HERMITAGE ROAD;532333;170391;51.417098;-0.098352709
HERMITAGE ROAD;532460;170315;51.416385;-0.096555819
UPPER BEULAH HILL;533010;169916;51.412671;-0.088800847
UPPER BEULAH HILL;533062;169832;51.411904;-0.088085065
BEULAH HILL / ALL SAINTS CHURCH;533114;169731;51.410984;-0.087375682
SOUTH NORWOOD HILL / ALL SAINTS CHURCH;533164;169518;51.409058;-0.086737083
GRANGE AVENUE;533215;169377;51.407779;-0.086057149
GRANGE AVENUE;533194;169437;51.408323;-0.086336389
WHARNCLIFFE GARDENS;533311;169233;51.406463;-0.084731787
WHARNCLIFFE GARDENS;533289;169283;51.406917;-0.085029127
HOWDEN ROAD;533500;169043;51.404711;-0.082087546
HOWDEN ROAD;533598;168929;51.403663;-0.080722363
ELM PARK ROAD;533731;168746;51.401987;-0.078880365
ELM PARK ROAD;533761;168732;51.401855;-0.078454621
STANLEY HALL;533939;168554;51.400213;-0.075964393
STANLEY HALL;533964;168542;51.400099;-0.075609752
BIGGIN HILL;531864;170581;51.418915;-0.10502265
BIGGIN HILL;531960;170574;51.418829;-0.10364547
WESTOW HILL;533646;170639;51.419019;-0.07938882
WESTOW PARK;533481;170349;51.416452;-0.081869404
WESTOW PARK;533460;170285;51.415882;-0.082195284
SYLVAN HILL;533360;170096;51.414207;-0.083703478
SYLVAN HILL;533333;170021;51.413539;-0.084119677
ALL SAINTS CHURCH;533195;169750;51.411136;-0.086204571
REDBRIDGE STN <> / REDBRIDGE ROUNDABOUT;541853;188314;51.57585;0.04565947
ALL SAINTS CHURCH;533189;169720;51.410868;-0.086302049
NUGENT ROAD;533512;168927;51.403666;-0.081958746
WHITWORTH ROAD;533409;168774;51.402315;-0.083496112
WHITWORTH ROAD;533365;168673;51.401418;-0.084166208
PARK ROAD / SELHURST PARK STADIUM;533292;168559;51.40041;-0.085257795
PARK ROAD / SELHURST PARK STADIUM;533214;168422;51.399197;-0.086429793
CLIFTON ROAD;533030;168366;51.398737;-0.089094196
CLIFTON ROAD;532892;168297;51.398149;-0.091102566
MORVAL ROAD;531104;174756;51.45661;-0.11440152
ST MATTHEWS ESTATE;531073;174927;51.458154;-0.11478412
MILTON ROAD;531580;174491;51.454118;-0.10765291
GANTS HILL ROUNDABOUT;543180;188415;51.576422;0.064836975
BROCKWELL LIDO;531641;174446;51.4537;-0.10679223
BROCKWELL LIDO;531740;174408;51.453335;-0.10538238
ROSENDALE ROAD;532003;173942;51.449086;-0.10177321
ROSENDALE ROAD;531951;173834;51.448128;-0.10256133
DERONDA ROAD;531790;173424;51.444481;-0.10502936
DERONDA ROAD;531803;173357;51.443876;-0.10486734
THURLOW PARK ROAD;531744;173160;51.442119;-0.10578905
LANCASTER AVENUE;531785;172613;51.437194;-0.1054029
WEST NORWOOD FIRE STATION;531774;172679;51.43779;-0.10553653
LANCASTER AVENUE;531875;172462;51.435816;-0.10416502
ROBSON ROAD;532200;172303;51.434311;-0.09955146
ROBSON ROAD;532188;172291;51.434206;-0.099728466
MARTELL ROAD;532514;172411;51.435209;-0.094996538
MARTELL ROAD;532473;172371;51.434859;-0.095600978
NORWOOD ROAD;532093;174076;51.45027;-0.10042883
CROXTED CLOSE;532267;173843;51.448135;-0.098013285
GUERNSEY GROVE;532171;174007;51.449631;-0.099332745
TURNEY ROAD;532377;173717;51.446977;-0.09647837
TURNEY ROAD;532444;173633;51.446207;-0.095546218
PYMERS MEAD;532516;173329;51.443458;-0.094624487
PYMERS MEAD;532519;173350;51.443646;-0.09457349
WESTERN ROAD;531349;175685;51.464902;-0.1105325
BRIXTON STATION ROAD;531511;175521;51.463391;-0.10826272
MOORLAND ROAD;531620;175516;51.46332;-0.10669642
SHAKESPEARE ROAD;531794;175644;51.46443;-0.10414546
KINGSBURY ROAD;521446;188772;51.584728;-0.24851141
SHAKESPEARE ROAD;531792;175629;51.464296;-0.10417982
VALMAR ROAD;532491;176452;51.471529;-0.093815117
VALMAR ROAD;532505;176464;51.471633;-0.093609172
TURNHAM GREEN CHURCH;520480;178494;51.492564;-0.26596152
KINGSBURY ROAD;521496;188683;51.583917;-0.24782087
FINCHLEY ROAD STATION <>;526354;184656;51.54666;-0.17918818
JULIAN'S PRIMARY SCHOOL;531185;171678;51.428931;-0.11437606
LEIGHAM COURT ROAD / STREATHAM COMMON;531204;171119;51.423903;-0.11430974
TIVOLI ROAD;532068;171004;51.422669;-0.10193313
NORWOOD SCHOOL;532303;171005;51.422623;-0.098554888
SALTER'S HILL;532635;171035;51.422815;-0.09377155
HERMITAGE ROAD;532825;170908;51.421629;-0.091088068
ROCKMOUNT ROAD;533058;170711;51.419804;-0.087812936
KELLETT ROAD;531347;175163;51.460212;-0.11075502
BARNET ODEON;525546;195735;51.646405;-0.18687359
KELLETT ROAD;531322;175254;51.461035;-0.1110809
EFFRA PARADE;531539;174907;51.457866;-0.10808808
REGENT ROAD;531834;174567;51.454742;-0.10397112
REGENT ROAD;531820;174597;51.455015;-0.10416133
ST JULIAN'S FARM ROAD;531874;171832;51.430155;-0.10441377
BARNET ODEON;525562;195700;51.646087;-0.18665502
ROTHSCHILD STREET;531887;171694;51.428912;-0.10427821
ST VINCENTS CLOSE;531836;171371;51.426021;-0.10513147
ST VINCENTS CLOSE;531842;171345;51.425786;-0.10505488
CROWN POINT / KNIGHTS HILL;531802;171038;51.423036;-0.10574397
GIPSY ROAD;532141;171666;51.428601;-0.10063717
GIPSY ROAD;532192;171522;51.427295;-0.099957686
NORWOOD PARK;532340;171164;51.424043;-0.097963729
EYLEWOOD ROAD;532274;171346;51.425694;-0.098844555
NORWOOD PARK;532397;171073;51.423212;-0.097178361
DEEPDENE ROAD;532669;175387;51.461917;-0.091653197
GREEN STREET;535175;197283;51.658085;-0.047191208
FRANKFURT ROAD;532363;174854;51.457198;-0.096254698
GARRATT LANE / SOUTHSIDE SHOPPING CENTRE;525676;174525;51.455764;-0.19256642
LINGS COPPICE;532709;172821;51.438848;-0.092039342
LINGS COPPICE;532756;172756;51.438253;-0.091387884
ILDERSLY GROVE;532815;172576;51.436621;-0.090606996
PARK HALL ROAD;532826;172477;51.435729;-0.090485938
SOUTH CROXTED ROAD;532868;172266;51.433823;-0.089961159
PARK HALL ROAD;532867;172326;51.434362;-0.089953046
CHURCH APPROACH;532930;171974;51.431184;-0.08917926
CHURCH APPROACH;532913;172098;51.432303;-0.08937717
ALLEYN ROAD;532963;171845;51.430017;-0.088753215
SOUTH CROXTED ROAD;532961;171886;51.430386;-0.088766591
GIPSY HILL;533125;171708;51.428748;-0.086475723
GIPSY HILL;533188;171611;51.427862;-0.085606489
DULWICH WOOD PARK / KINGSWOOD DRIVE;533465;171525;51.427024;-0.081656873
CRYSTAL PALACE PARADE / COLLEGE ROAD;533830;171148;51.42355;-0.07655223
CRYSTAL PALACE PARADE / COLLEGE ROAD;533839;171140;51.423476;-0.076425883
ELSIE ROAD;533584;175359;51.46145;-0.078500501
DULWICH LIBRARY;533955;173912;51.448359;-0.07371083
OVERHILL ROAD;534167;173575;51.44528;-0.070789552
OVERHILL ROAD;534238;173549;51.44503;-0.06977837
GROVE TAVERN;534339;173422;51.443865;-0.068374084
LEYTON HIGH ROAD / LEYTON STATION <>;538203;186245;51.558164;-0.007791188
GROVE TAVERN;534363;173413;51.443778;-0.06803237
CHAMPION HILL;532702;175958;51.46704;-0.090964312
CHAMPION HILL;532766;175731;51.464985;-0.090128675
BLANCHEDOWNE;532736;175637;51.464147;-0.090595551
BLANCHEDOWNE;532729;175512;51.463026;-0.090743145
DEEPDENE ROAD;532667;175350;51.461584;-0.09169584
FRANKFURT ROAD;532409;174895;51.457556;-0.095577664
TURNHAM GREEN CHURCH;520555;178504;51.492637;-0.26487832
HOLLINGBOURNE ROAD;532260;174719;51.456009;-0.097786763
ST PAUL'S CHURCH;532118;174586;51.454847;-0.099878978
RUSKIN WALK;532316;174379;51.452941;-0.097108304
RUSKIN WALK;532407;174384;51.452964;-0.095797546
BECKWITH ROAD;532691;174442;51.453419;-0.091690935
BECKWITH ROAD;532710;174432;51.453325;-0.091421396
HOUNSLOW BUS STATION;514449;175957;51.471013;-0.35361559
TOWNLEY ROAD;533173;174652;51.455193;-0.084679121
TOWNLEY ROAD;533256;174732;51.455893;-0.083455138
ARNHEM WHARF PRIMARY SCHOOL;537211;179113;51.494317;-0.02486728
KENTON LIBRARY;517044;189560;51.59274;-0.31175468
BAWTRY ROAD;527743;193362;51.624586;-0.15600295
BAWTRY ROAD;527707;193372;51.624684;-0.15651908
HAMPDEN WAY;528658;194255;51.632402;-0.1424644
HAMPDEN SQUARE;528584;194219;51.632096;-0.14354621
ST ANDREW'S CHURCH;542647;187709;51.570213;0.056864176
ST ANDREW'S CHURCH;542688;187662;51.569781;0.057436287
LEE STATION #;539983;174078;51.448394;0.013044414
LEE STATION #;539966;174202;51.449512;0.012848943
BLACKHEATH STATION #;539652;175980;51.465567;0.009034645
DURANTS ROAD;535266;196289;51.649131;-0.046260612
CRANBROOK ROAD;543402;188418;51.576393;0.068039638
GANTS HILL STATION <>;543458;188371;51.575956;0.068828029
GANTS HILL STATION <> / WOODFORD AVENUE;543206;188524;51.577395;0.065256321
GANTS HILL STATION <> WOODFORD AVENUE;543236;188536;51.577495;0.065693848
OSBORN STREET;534112;181500;51.51651;-0.06857395
STAMFORD HILL BROADWAY;533655;187735;51.572648;-0.072790204
SHOREDITCH CHURCH;533429;182754;51.527941;-0.077936918
LIVERPOOL STREET STATION <> #;533275;181561;51.517257;-0.080606426
ROSEBERY AVENUE;531103;182023;51.521916;-0.11171958
ROSEBERY AVENUE;531116;182012;51.521814;-0.1115364
HATTON GARDEN;531321;182052;51.522126;-0.10856844
HATTON GARDEN;531298;182034;51.52197;-0.10890646
ST JOHN STREET;531650;182114;51.522607;-0.10380597
CLERKENWELL GREEN;531526;182072;51.522258;-0.10560791
CLERKENWELL ROAD / ST JOHN STREET;531835;182119;51.522609;-0.10113911
GOSWELL ROAD / ALDERSGATE STREET;531937;182183;51.52316;-0.09964582
CENTRAL STREET;532136;182284;51.524021;-0.096741279
ST LUKE'S MUSIC EDUCATION CENTRE;532356;182370;51.524742;-0.093539734
ST LUKE'S MUSIC EDUCATION CENTRE;532418;182405;51.525042;-0.09263342
BUNHILL ROW;532613;182441;51.52532;-0.089810702
OLD STREET STATION <> #;532678;182470;51.525566;-0.088863392
OLD STREET STATION <> #;532870;182515;51.525925;-0.086080449
SHOREDITCH FIRE STATION;532867;182538;51.526132;-0.086115001
GREAT EASTERN ST/SHOREDITCH HIGH ST;533517;182125;51.522268;-0.076907289
COMMERCIAL STREET / ELDER STREET;533565;182089;51.521933;-0.07622948
SHOREDITCH HIGH STREET STATION #;533638;181977;51.520909;-0.075220359
FOLGATE STREET;533677;181943;51.520594;-0.074671465
BRUSHFIELD STREET;533686;181743;51.518795;-0.074617628
LOLESWORTH CLOSE;533735;181624;51.517714;-0.073956951
LOLESWORTH CLOSE;533768;181586;51.517365;-0.073496042
ALDGATE EAST STATION <>;533856;181395;51.515628;-0.072301007
WHITECHAPEL HIGH STREET;533865;181411;51.515769;-0.07216531
DALSTON JUNCTION STATION #;533495;184783;51.546159;-0.076217374
HENDON CENTRAL STATION <>;523018;188600;51.582841;-0.22589388
HALCOT AVENUE;549612;174858;51.452943;0.15183909
BRUNSWICK ROAD;538475;181099;51.511855;-0.005892202
BAIRD ROAD;534468;196279;51.649233;-0.0577916
GLYN ROAD;535154;196230;51.648628;-0.047901227
ENFIELD BUS GARAGE / SOUTHBURY STATION #;534987;196227;51.648641;-0.050314671
GLYN ROAD;535138;196216;51.648506;-0.048137748
TOWN LANE;506068;172628;51.442723;-0.47523028
CHARLTON VILLAGE;541618;177878;51.482134;0.03807807
CHARLTON CHURCH LANE;541469;177732;51.480859;0.035875317
VANBRUGH PARK / STRATHEDEN ROAD;540256;177263;51.476947;0.018232788
BLACKHEATH / ROYAL STANDARD;540314;177335;51.477579;0.019095978
TOWN LANE;506005;172569;51.442204;-0.47615406
HERONWOOD HOSPITAL;540431;189257;51.584679;0.025529489
GOODMAYES LANE;546454;187023;51.563074;0.11147028
OXFORD AVENUE;509632;176969;51.481062;-0.4226256
OXFORD AVENUE;509458;176921;51.480664;-0.42514514
FIELD VIEW;508811;171846;51.435174;-0.4360183
FIELD VIEW;508760;171822;51.434968;-0.43675906
GANTS HILL STATION <>;543401;188518;51.577292;0.068066009
GANTS HILL STATION <>;543430;188516;51.577266;0.068483407
GOODMAYES LANE / THE LORD NAPIER;546263;187006;51.562971;0.1087097
ALGAR COURT;513898;169582;51.413827;-0.36359431
BRACONDALE;514084;163981;51.363448;-0.36271868
LYNCROFT GARDENS;525422;185538;51.554794;-0.19230756
ST PETERS CHURCH;531152;171958;51.431454;-0.11474689
ROSS ROAD;533430;169135;51.405554;-0.083058743
BOSTON MANOR ROAD;517121;177901;51.487939;-0.3145193
DARLING ROW;534962;182052;51.521269;-0.056120125
BALLS POND ROAD;532964;184785;51.546302;-0.083869733
SHERWOOD GARDENS;534657;178247;51.487148;-0.061964867
SHERWOOD GARDENS;534599;178175;51.486515;-0.062827135
CORBETTS LANE / THE JOLLY GARDENERS;535256;178685;51.490942;-0.053175319
CORBETTS LANE / THE JOLLY GARDENERS;535197;178650;51.490641;-0.054038016
GILLETTE CORNER;516156;177355;51.483231;-0.32859107
BUSH ROAD;535811;178714;51.491069;-0.045174988
FENDALL STREET;533502;179166;51.495681;-0.078242634
ALSCOT ROAD;533784;178952;51.493691;-0.074263829
ALSCOT ROAD;533769;178941;51.493596;-0.074483935
HARRIS ACADEMY;534005;178859;51.492803;-0.071117591
REVERDY ROAD;534116;178849;51.492687;-0.069523464
VICARAGE FARM ROAD;512401;176514;51.47643;-0.38291185
LYNTON ROAD;534800;178590;51.490197;-0.059775695
DUNTON ROAD / OLD KENT ROAD;533598;178503;51.4897;-0.077111284
LYNTON ROAD;533730;178731;51.491718;-0.075124874
LONGFIELD ESTATE;533790;178858;51.492845;-0.074213053
LONGFIELD ESTATE;533782;178819;51.492496;-0.074342989
SURREY QUAYS STATION #;535746;178974;51.493421;-0.046010755
LAMPTON ROAD;513742;176828;51.478984;-0.36351
JOHN SILKIN LANE;535859;178452;51.488703;-0.044584774
ALLOA ROAD;535924;178352;51.487789;-0.043687618
LYNCROFT GARDENS;525465;185527;51.554686;-0.19169158
ALLOA ROAD;535954;178279;51.487126;-0.043283887
GRINSTEAD ROAD;536019;178087;51.485385;-0.042422196
GRINSTEAD ROAD;536023;178119;51.485672;-0.042352307
SURREY CANAL ROAD;536070;177895;51.483647;-0.041762066
NEW CROSS STATION #;536826;177029;51.475683;-0.031216494
NEW CROSS STATION #;536816;177048;51.475856;-0.031353042
FRIENDLY STREET;537343;176760;51.473141;-0.02388137
CRANBROOK ROAD;537470;176535;51.471088;-0.022141406
CRANBROOK ROAD;537519;176487;51.470645;-0.021455034
ETHEROW STREET;534022;174097;51.450006;-0.072677243
GOODRICH ROAD;534084;174227;51.451159;-0.071736321
UNDERHILL ROAD;534254;174648;51.454902;-0.069131649
UPLAND ROAD;534377;174942;51.457515;-0.067250848
UPLAND ROAD;534340;174835;51.456562;-0.067823684
BARRY ROAD / PECKHAM RYE;534434;175061;51.458571;-0.066385733
PECKHAM RYE / BARRY ROAD;534445;175163;51.459485;-0.066188756
FRIERN ROAD;534554;174926;51.457329;-0.064710862
GARSTON LANE;533172;159734;51.321131;-0.090283406
FRIERN ROAD;534588;174834;51.456494;-0.064256767
DUNSTANS ROAD;534761;174520;51.453632;-0.061887819
DUNSTANS ROAD;534692;174583;51.454214;-0.062856302
FOREST HILL TAVERN;534931;174324;51.45183;-0.059517349
WOOD VALE / FOREST HILL ROAD;535024;174095;51.44975;-0.058267072
OAKHURST GROVE;534141;175385;51.461552;-0.070477722
GARSTON LANE;533165;159755;51.321321;-0.090375963
EAST DULWICH ROAD / PECKHAM RYE;534355;175465;51.46222;-0.067368777
PECKHAM RYE COMMON;534483;175518;51.462666;-0.065507222
PECKHAM RYE / NUNHEAD LANE;534554;175491;51.462407;-0.064496069
STUART ROAD;535285;175039;51.458171;-0.054152657
MANOR ROAD / NORTH SHEEN STATION #;519067;175038;51.461802;-0.28746866
STUART ROAD;535314;175028;51.458065;-0.053739707
SURREY ROAD;535515;174852;51.456435;-0.050915775
SURREY ROAD;535544;174845;51.456365;-0.050501316
WAITE STREET;533815;177962;51.484787;-0.07419248
WAITE STREET;533829;177868;51.483939;-0.074026568
ST GEORGE'S WAY;533828;177649;51.481971;-0.074123878
ST GEORGE'S WAY;533839;177602;51.481546;-0.073983357
BIRD IN BUSH ROAD;534046;177327;51.479026;-0.071108449
BIRD IN BUSH ROAD;534041;177364;51.47936;-0.071166378
COMMERCIAL WAY;534115;177138;51.477311;-0.070187137
COMMERCIAL WAY;534098;177213;51.477989;-0.070403336
BONAR ROAD;534172;176986;51.475932;-0.069424536
BONAR ROAD;534162;177042;51.476437;-0.069547193
PECKHAM PARK ROAD / OLD KENT ROAD;534392;177694;51.482242;-0.065989525
BIRD IN BUSH ROAD;534321;177534;51.480821;-0.067072179
BIRD IN BUSH ROAD;534305;177465;51.480205;-0.067328664
PARK PARADE;521845;183341;51.535832;-0.24463577
PECKHAM RYE STATION #;534221;176372;51.470403;-0.068952428
PECKHAM RYE STATION #;534291;176253;51.469317;-0.0679904
HEATON ROAD;534379;176050;51.467471;-0.066801342
CARDEN ROAD;534648;175596;51.463328;-0.063103825
CARDEN ROAD;534679;175603;51.463383;-0.062655184
LINDEN GROVE;534867;175727;51.464453;-0.059903285
NUNHEAD GREEN;534953;175799;51.465079;-0.058638569
BARSET ROAD;535038;175902;51.465985;-0.057376373
BARSET ROAD;535094;175933;51.46625;-0.056558856
INVERTON ROAD;535782;175026;51.457935;-0.047008484
INVERTON ROAD;535732;174971;51.457453;-0.047748801
BELLWOOD ROAD;535852;175154;51.459068;-0.04595244
LIMESFORD ROAD;535789;175373;51.461051;-0.046774667
LIMESFORD ROAD;535788;175394;51.46124;-0.046780995
PARK PARADE;521882;183445;51.536759;-0.24406661
PECKHAM 7TH DAY ADVENTIST CHURCH;535642;175682;51.463863;-0.048770902
PECKHAM 7TH DAY ADVENTIST CHURCH;535631;175726;51.464261;-0.048912287
IVYDALE ROAD / LINDEN GROVE;535566;175841;51.46531;-0.049803352
IVYDALE ROAD / LINDEN GROVE;535552;175892;51.465772;-0.04998523
PARK PARADE;521941;183466;51.536935;-0.24320909
ELVERSON ROAD;537693;176276;51.468706;-0.019033603
ELVERSON ROAD;537732;176214;51.46814;-0.018496622
MILLER HOUSE;537670;177052;51.475685;-0.019062462
GREENWICH STATION # [DLR];538026;177268;51.47754;-0.01385536
HARLESDEN JUBILEE CLOCK;521603;183221;51.534806;-0.24816457
GREENWICH STATION # [DLR];538191;177353;51.478263;-0.011447721
GREENWICH HIGH ROAD / ROYAL HILL;538274;177447;51.479088;-0.010216536
TRAFALGAR ESTATE;538833;177925;51.483246;-0.001984338
TRAFALGAR ESTATE;538781;177888;51.482926;-0.002747256
TRAFALGAR ROAD / MAZE HILL;539063;178033;51.48416;0.001368335
TRAFALGAR ROAD / MAZE HILL;538977;177972;51.483633;0.000106604
KING WILLIAM LANE;539217;178122;51.484922;0.003619815
TYLER STREET;539353;178166;51.485284;0.005594555
CEARN WAY;530603;159485;51.319488;-0.12721998
TYLER STREET;539393;178199;51.485571;0.006183278
PELTON ROAD;539458;178290;51.486372;0.007154718
CHRIST CHURCH PRIMARY SCHOOL;539494;178453;51.487828;0.007737211
CEARN WAY;530635;159442;51.319095;-0.12677678
MORDEN WHARF ROAD;539267;179213;51.494713;0.004769481
EGERTON DRIVE;537805;176774;51.473154;-0.017228161
ACTON LANE;521610;183177;51.534409;-0.24807888
EGERTON DRIVE;537735;176773;51.473162;-0.018235786
WALDRAM PARK ROAD;535601;173060;51.440311;-0.050364846
WALDRAM PARK ROAD;535754;173139;51.440984;-0.048134589
FOREST HILL FIRE STATION;535886;173294;51.442346;-0.046177087
WILLESDEN COUNTY COURT;521576;183322;51.53572;-0.24851881
BROCKLEY PARK;536118;173522;51.444339;-0.042753414
BROCKLEY RISE / CRANSTON ROAD;536149;173357;51.442849;-0.042371039
DUNCOMBE HILL;536130;173795;51.446789;-0.042475937
BROCKLEY PARK;536127;173599;51.445029;-0.042594403
BROCKLEY RISE / CHANDOS;536207;173958;51.448236;-0.041305917
WILLESDEN COUNTY COURT;521551;183317;51.53568;-0.2488808
BROCKLEY JACK;536351;174445;51.452577;-0.039047479
BROCKLEY JACK;536409;174539;51.453408;-0.038177064
BEECROFT ROAD;536525;174843;51.456112;-0.036391403
CROFTON PARK STATION #;536468;174677;51.454634;-0.037275273
VICTOR ROAD;522769;182876;51.531453;-0.23148234
ROUNDEL CLOSE;536714;175176;51.459059;-0.033544243
ADELAIDE AVENUE / MONTAGUE AVENUE;537040;175181;51.459025;-0.02885288
ADELAIDE AVENUE / ST MARGARET'S ROAD;536878;175178;51.459037;-0.031184368
PRENDERGAST SCHOOL;537205;175079;51.458068;-0.026518941
PRENDERGAST SCHOOL;537194;175075;51.458035;-0.026678719
WROTTESLEY ROAD;522650;182946;51.532108;-0.23317268
LADYWELL STATION #;537626;174927;51.4566;-0.020522219
LADYWELL STATION #;537583;174910;51.456458;-0.021147334
HALING PARK ROAD;532536;163876;51.358503;-0.097864666
BELLEGROVE ROAD / WELLING WAY;545522;176060;51.464808;0.093512459
HALING PARK ROAD;532552;163703;51.356944;-0.097699415
GRAY'S INN ROAD;531084;181744;51.519413;-0.11209697
TUBBENDEN LANE;545674;165709;51.371759;0.091448776
PEMBROKE PLACE;525181;179208;51.49796;-0.1980292
MARBLE ARCH / EDGWARE ROAD;527686;181041;51.513873;-0.16129883
CLAPHAM JUNCTION / THE FALCON;527384;175382;51.463085;-0.16768859
EARLS COURT ROAD / PEMBROKE PLACE;525163;179280;51.498611;-0.19826285
PADDINGTON STATION <> #;526775;181296;51.51637;-0.17432851
GALLOWAY ROAD;522296;180076;51.506392;-0.23926864
CLARENCE AVENUE;529502;173961;51.449834;-0.13773681
CLARENCE AVENUE;529614;173899;51.449251;-0.13614863
CAVENDISH ROAD / CLAPHAM SOUTH STN <>;528950;174386;51.453779;-0.14552135
CAVENDISH ROAD / CLAPHAM SOUTH STN <>;528939;174407;51.453971;-0.14567193
HANGER LANE;518537;180580;51.511722;-0.29323536
DRAKE AVENUE;500068;178798;51.499273;-0.55978597
DRAKE AVENUE;499929;178830;51.499585;-0.56177871
GREEN LANE;544446;186722;51.560887;0.082398393
WORMHOLT ROAD;522138;180111;51.506741;-0.24153195
NIGHTINGALE ROAD;515661;180250;51.509351;-0.33476855
NIGHTINGALE ROAD;515666;180315;51.509934;-0.33467523
HANWELL STATION #;515485;180701;51.513441;-0.3371559
HANWELL STATION #;515502;180641;51.512898;-0.33693067
GIFFORD GARDENS;515217;181766;51.523067;-0.34066844
BORDARS ROAD;515264;181660;51.522105;-0.34002594
ROMFORD ROAD;542076;185450;51.550059;0.047718786
KENNEDY ROAD;515166;181945;51.524686;-0.34134477
KENNEDY ROAD;515167;181977;51.524974;-0.34131991
NORTHFIELDS STATION <>;517055;179194;51.499574;-0.31504102
NORTHFIELDS STATION <>;517114;179108;51.498788;-0.31421995
WOOD END LANE;513771;184947;51.55195;-0.3604747
SOMERVILLE ROAD;547536;189105;51.5815;0.1279421
ROMFORD ROAD;542041;185598;51.551398;0.047274049
SOMERVILLE ROAD;547553;189130;51.58172;0.12819777
HILL CLOSE;516697;192656;51.620637;-0.31573224
HILL CLOSE;516652;192684;51.620898;-0.31637264
NORTH MIDDLESEX HOSPITAL;533105;192607;51.616559;-0.078875244
NORTHCOTE ROAD;527378;175128;51.460803;-0.16786633
NORTH MIDDLESEX HOSPITAL;533217;192573;51.616227;-0.077271449
COLHAM ROAD;507015;181859;51.525515;-0.45881514
MILL ROAD;514517;172683;51.441573;-0.35369598
GODFREY WAY;512720;173639;51.450526;-0.37923619
HAMPTON COURT PALACE;515429;168556;51.404296;-0.34192276
CHURCH ELM LANE;549084;184429;51.539079;0.14828589
NORTHCOTE ROAD;527501;175127;51.460767;-0.16609716
SCOTTS LANE;538590;168569;51.399232;-0.009141273
SCOTTS LANE;538559;168549;51.399059;-0.009594415
THE CHINESE GARAGE;537958;168680;51.400383;-0.018177377
THE CHINESE GARAGE;537950;168605;51.399711;-0.018321439
BROMLEY ROAD / ST GEORGE'S CHURCH;537500;169604;51.408797;-0.024399305
BROMLEY ROAD / ST GEORGE'S CHURCH;537484;169589;51.408666;-0.024635018
EDMONTON CEMETERY;533043;194141;51.630359;-0.07918812
GREAT CAMBRIDGE ROAD;533157;194034;51.62937;-0.077582694
CAMBRIDGE ROUNDABOUT / KENDAL GARDENS;532713;192591;51.616508;-0.084539794
GREAT CAMBRIDGE ROAD;532626;192537;51.616043;-0.085816052
HAMPSTEAD WAY;525959;187050;51.568263;-0.18402481
HAMPSTEAD WAY;525983;187020;51.567988;-0.18368947
WICK ROAD;536248;184681;51.544585;-0.036579718
WICK ROAD / KENWORTHY ROAD;536250;184743;51.545141;-0.03652691
KENWORTHY ROAD / WICK ROAD;536252;184846;51.546066;-0.036458238
WICK ROAD;536286;184813;51.545762;-0.035980993
CLAPHAM JUNCTION / THE NORTHCOTE;527391;175235;51.461762;-0.16764079
WESTOW HILL;533596;170717;51.419732;-0.080078077
CHEAM BROADWAY;524245;163562;51.357553;-0.21698813
ST DUNSTAN'S HILL;524611;163743;51.359099;-0.21167105
ST DUNSTAN'S HILL;524618;163730;51.358981;-0.21157512
CHEAM ROAD / GANDER GREEN LANE;524958;163838;51.359877;-0.20665657
CHEAM ROAD / GANDER GREEN LANE;525105;163859;51.360033;-0.20453899
SECOMBE CENTRE;525599;164009;51.361272;-0.19739464
SHERWOOD PARK ROAD;525472;163972;51.360968;-0.19923083
LIND ROAD;526502;164202;51.362807;-0.18436313
NONSUCH PARK;523946;163526;51.357294;-0.22129266
NONSUCH PARK;523927;163531;51.357343;-0.22156365
CARSHALTON ROAD / RINGSTEAD ROAD;526980;164219;51.362853;-0.17749498
POUND STREET;527751;164378;51.364109;-0.16636963
POUND STREET;527828;164464;51.364865;-0.16523333
CARSHALTON HIGH STREET;528163;164543;51.365499;-0.16039551
CARSHALTON HIGH STREET;528221;164554;51.365585;-0.15955887
THE HOLT;529143;164989;51.369286;-0.14616436
WALLINGTON COUNTY GRAMMAR SCHOOL;528993;164929;51.368781;-0.14833975
CHURCH ROAD;529572;165064;51.369862;-0.13997766
CHURCH ROAD;529448;165055;51.369809;-0.14176129
GUY ROAD;529950;164992;51.369129;-0.13457676
CROYDON ROAD / PLOUGH LANE;530149;164842;51.367735;-0.1317745
LAVINGTON ROAD;530546;164835;51.367581;-0.12607737
LAVINGTON ROAD;530579;164850;51.367708;-0.12559809
DAWSON ROAD;518734;168964;51.407281;-0.29429427
DAWSON ROAD;518751;168943;51.407089;-0.29405699
VICTORIA ROAD / SURBITON STATION #;517982;167307;51.392545;-0.30565142
ATHELSTAN PARK;518742;168604;51.404044;-0.29429969
LOWER MARSH LANE;518715;168388;51.402108;-0.29475988
VALENTINES MANSION AND PARK;543210;188016;51.572829;0.065107082
VALENTINE'S MANSION AND PARK;543167;187910;51.571888;0.064443873
COLES GREEN ROAD;522516;186770;51.566504;-0.23377309
BERWYN ROAD;519669;175326;51.464263;-0.27870992
BERWYN ROAD;519588;175288;51.463939;-0.27988822
DALSTON LANE / DALSTON JUNCTION;533668;184803;51.546297;-0.073716408
MILE END STATION <>/ BOW ROAD;536404;182603;51.525874;-0.035135821
HACKNEY ROAD / COLUMBIA ROAD;533528;182750;51.527882;-0.076512155
HOXTON STATION #;533663;182993;51.530033;-0.074475102
HOXTON STATION #;533628;182895;51.529161;-0.075016513
MILE END STATION <>;536452;182368;51.523751;-0.034535281
QUEENSBRIDGE ROAD;533922;183099;51.530925;-0.070703298
PRITCHARDS ROAD;534523;183202;51.531707;-0.062004976
HARDWICK STREET;531373;182674;51.527704;-0.10758763
MILE END STATION <>;536456;182432;51.524325;-0.034452894
WATTISFIELD ROAD;535172;186342;51.559769;-0.051449138
WATTISFIELD ROAD;535223;186359;51.55991;-0.050707355
LEE VALLEY ICE CENTRE;535698;186710;51.56295;-0.043724072
PERTH ROAD;536465;187250;51.567618;-0.032456341
EMMANUEL PARISH CHURCH;536703;187391;51.568827;-0.028969823
ROCHDALE ROAD;537234;187740;51.571834;-0.021176989
MANOR ROAD;537327;187771;51.57209;-0.019823802
MANOR ROAD;537446;169515;51.408011;-0.025209688
SHORTLANDS ROAD;537564;187903;51.573219;-0.016354556
SHORTLANDS ROAD;537569;187888;51.573083;-0.016288321
FRASER ROAD;538043;188368;51.57728;-0.009264523
LEYTON GREEN ROAD;538106;188414;51.577678;-0.008337874
ESSEX ROAD;538212;188494;51.578371;-0.006777692
SHERNHALL STREET;538235;188546;51.578833;-0.006425533
PETERBOROUGH ROAD;538438;188684;51.580023;-0.003443454
BECKENHAM HIGH STREET / WAR MEMORIAL;537088;169362;51.406722;-0.030412772
PETERBOROUGH ROAD;538378;188625;51.579507;-0.004332043
WHIPPS CROSS / WOOD STREET;538609;188815;51.581158;-0.000925519
WHIPPS CROSS / WOOD STREET;538595;188785;51.580892;-0.001139271
WHIPPS CROSS ROUNDABOUT;538753;188818;51.58115;0.001152577
HAINAULT COURT;538943;189036;51.583062;0.003979128
HAINAULT COURT;538970;189019;51.582902;0.004361841
OAKHURST GARDENS;539102;189364;51.58597;0.006402314
SNARESBROOK ROAD;539103;189157;51.58411;0.006334793
BECKENHAM HIGH STREET / WAR MEMORIAL;537025;169361;51.406729;-0.031318362
ST PETERS CHURCH;539141;189607;51.588144;0.007061102
ST PETERS CHURCH;539145;189565;51.587765;0.007102168
FOREST ROAD;539301;190191;51.593352;0.009600718
CROYDON ROAD / WAR MEMORIAL;536937;169340;51.406561;-0.032590877
HIGHWOOD GARDENS;542832;188893;51.580805;0.060012711
CARSHALTON ROAD / CAMBRIDGE ROAD;527254;164249;51.363061;-0.17355077
TRAFALGAR SQUARE / CHARING CROSS STN <>#;530077;180469;51.508188;-0.12707238
DULWICH HOSPITAL;533377;174994;51.458219;-0.081615935
DULWICH HOSPITAL;533487;175055;51.458741;-0.08001059
CROXTED ROAD / THURLOW PARK ROAD;532649;173025;51.440695;-0.092825712
CROXTED ROAD / THURLOW PARK ROAD;532625;173135;51.441689;-0.093129646
KILBURN HIGH ROAD;525289;183788;51.539096;-0.19484749
FARNBOROUGH COMMON / P R U HOSPITAL;543100;164936;51.365467;0.054184065
TIBBET'S RIDE;523570;173747;51.449235;-0.22313326
SOUTH GREENFORD STATION #;515323;183067;51.534738;-0.33871571
EDISON ROAD;530048;188221;51.577859;-0.12462803
SOUTH GREENFORD STATION #;515344;183035;51.534447;-0.33842355
CROUCH END BROADWAY;530153;188504;51.580378;-0.12300883
ST JOHN'S WOOD STATION <>;526776;183226;51.533714;-0.17362023
BRIXTON STATION ROAD;531396;175609;51.464208;-0.10988452
KINGS ROAD;512986;186076;51.562255;-0.37142943
KINGS ROAD;512968;186048;51.562007;-0.37169798
COPLAND AVENUE;517443;184989;51.551576;-0.3075239
BUNKERS HILL / THE WHITE CROSS;548830;172281;51.429993;0.1395104
BUNKERS HILL / THE WHITE CROSS;548868;172371;51.430792;0.14009441
HARTFORD ROAD;549650;173960;51.444864;0.15200611
HARTFORD ROAD;549670;173956;51.444823;0.15229199
BROOMFIELD ROAD;549669;174690;51.451418;0.15258781
BROOMFIELD ROAD;549693;174694;51.451448;0.15293463
VICARAGE ROAD;549818;173224;51.438206;0.15411049
VICARAGE ROAD;549760;173265;51.43859;0.15329398
MOTTINGHAM ROAD / COURT ROAD;542201;172833;51.436654;0.044441301
MOTTINGHAM ROAD / COURT ROAD;542296;172740;51.435795;0.045769781
COLLIER ROW ROUNDABOUT / REX CLOSE;549934;191102;51.59881;0.16337768
BRACKEN AVENUE;528387;174108;51.451409;-0.1537204
CROYDON UNIVERSITY HOSPITAL;531500;167202;51.388633;-0.11150572
GIPSY HILL POLICE STATION;533294;170676;51.419434;-0.084434084
SOUTH EDEN PARK ROAD;537741;166942;51.384818;-0.021968625
BROWNHILL ROAD / WELLMEADOW ROAD;539309;173699;51.445154;0.003202494
HARROW GREEN;539195;186208;51.557588;0.006494548
BELLEGROVE ROAD / WELLING WAY;545531;176039;51.464617;0.09363329
SHEPHERDS BUSH STATION<>#;523628;179900;51.504521;-0.22014782
STAMFORD HILL BROADWAY;533659;187776;51.573016;-0.072716936
THAMES BARRIER;541775;178842;51.490757;0.040724266
NEW OXFORD STREET;529956;181417;51.516735;-0.12846578
CROMWELL AVENUE;540544;168575;51.398805;0.018931475
WEST STREET;540230;169462;51.406853;0.014771011
BEAUFORT STREET;526807;177774;51.484711;-0.17513235
FINCHLEY ROAD;525025;187474;51.572281;-0.19734288
FINCHLEY ROAD;525096;187434;51.571906;-0.19633316
HOLCROFT ROAD;535374;184293;51.541308;-0.049324785
WELL STREET / HOLCROFT ROAD;535373;184269;51.541093;-0.049348419
MOULINS ROAD;535560;184147;51.539952;-0.046700555
TERRACE ROAD;535478;184292;51.541274;-0.047826445
VICTORIA PARK ROAD;535704;183841;51.537167;-0.04474332
LAURISTON ROAD;535640;184102;51.539528;-0.04556505
VICTORIA PARK ROAD;535722;183837;51.537127;-0.04448549
OLD FORD ROAD;535971;183298;51.532224;-0.041105501
VICTORIA PARK;535916;183474;51.533818;-0.041830063
ST BARNABAS CHURCH;536058;183101;51.530432;-0.039928058
BEAUFORT STREET;526725;177724;51.48428;-0.17633059
ARBERY ROAD;536149;182953;51.529081;-0.038674154
ARBERY ROAD;536190;182912;51.528702;-0.038099312
LICHFIELD ROAD;536324;182702;51.526783;-0.036250011
LICHFIELD ROAD;536312;182742;51.527145;-0.036407419
BOW COMMON LANE;536489;182193;51.522169;-0.034070022
ERIC STREET;536548;182081;51.521148;-0.033263511
ERIC STREET;536613;182034;51.52071;-0.032345436
BEAUFORT STREET / KINGS ROAD;526813;177681;51.483874;-0.17507935
PIXLEY STREET;536873;181427;51.515193;-0.028835881
PIXLEY STREET;536897;181411;51.515043;-0.028496431
BEAUFORT STREET / KINGS ROAD;526784;177702;51.484069;-0.17548924
LUDGATE HILL / OLD BAILEY;531808;181155;51.513952;-0.10188826
VARTRY ROAD;532785;188042;51.575613;-0.085220557
BOW BUS GARAGE;537467;182929;51.528546;-0.019695422
BRICK LANE;533819;182394;51.524614;-0.072454893
MARGERY PARK ROAD;540205;184927;51.545827;0.020543943
MARGERY PARK ROAD;540124;184881;51.545434;0.019358296
SPROWSTON ROAD;540371;184968;51.546154;0.022952615
BRICK LANE;533924;182460;51.525182;-0.070917222
SHREWSBURY ROAD;541533;185246;51.548362;0.039810636
WOODGRANGE PARK STATION #;541746;185336;51.549117;0.042916676
WOODGRANGE PARK STATION #;541849;185376;51.549451;0.044417276
FIRST AVENUE;542274;185658;51.551878;0.050656558
FIRST AVENUE;542323;185670;51.551974;0.051367661
MANOR PARK LIBRARY;542430;185745;51.55262;0.052940228
FULHAM BROADWAY STATION <>;525472;177231;51.480128;-0.19454128
MANOR PARK LIBRARY;542529;185795;51.553045;0.054387407
SEVENTH AVENUE;542615;185863;51.553634;0.055654527
DERSINGHAM AVENUE;543042;186069;51.555377;0.061892912
NORTH CIRCULAR ROAD;543174;186143;51.556009;0.063825699
RANELAGH ROAD;539124;185952;51.555305;0.005369857
RANELAGH ROAD;539125;185874;51.554604;0.005353442
HARROW GREEN;539191;186158;51.557139;0.006417112
FULHAM BROADWAY STATION <>;525522;177228;51.48009;-0.19382271
LEYTONSTONE FIRE STATION;539303;186573;51.560841;0.008195905
LEYTONSTONE FIRE STATION;539301;186530;51.560455;0.00815005
VERNON ROAD;539413;187068;51.565262;0.009977863
MICHAEL ROAD;539433;187146;51.565958;0.010297138
FULHAM TOWN HALL;525456;177141;51.479323;-0.1948035
HARVEY ROAD;539446;187322;51.567536;0.010554344
HARVEY ROAD;539461;187328;51.567586;0.010773002
GREEN MAN ROUNDABOUT;539703;187666;51.570563;0.014396559
LEYTON WAY;539704;188068;51.574175;0.01457069
LEYTON WAY;539751;188013;51.57367;0.0152266
SHORROLDS ROAD;525107;177406;51.481782;-0.19973271
SIR ALFRED HITCHCOCK HOTEL;539496;188354;51.576797;0.011684664
SIR ALFRED HITCHCOCK HOTEL;539508;188362;51.576866;0.011860897
WHIPPS CROSS HOSPITAL;538919;188688;51.579941;0.003495409
WHIPPS CROSS HOSPITAL;538966;188670;51.579767;0.004166154
GREEN STREET;540878;185055;51.54681;0.030294138
EDGWARE COMMUNITY HOSPITAL;519604;191109;51.606124;-0.27428887
NORTH END ROAD;525063;177278;51.480641;-0.2004113
SHOREDITCH CHURCH;533519;182713;51.527551;-0.076655829
BARING STREET;532536;183713;51.536769;-0.090441704
ELIZABETH AVENUE;532339;183951;51.538954;-0.093191037
BASIRE STREET;532430;183861;51.538124;-0.091913514
ESSEX ROAD;532211;184067;51.540026;-0.094992047
TRAFALGAR SQUARE / CHARING CROSS STN <>#;530133;180459;51.508085;-0.12626961
NORTH END ROAD;525012;177244;51.480347;-0.20115736
ECCLESBOURNE ROAD;532265;184035;51.539726;-0.094225877
ESSEX ROAD STATION #;532064;184192;51.541184;-0.097063581
ESSEX ROAD STATION #;532103;184177;51.54104;-0.096507169
CANONBURY SQUARE;531833;184398;51.543089;-0.10031548
CANONBURY GROVE;531910;184332;51.542478;-0.099230483
CANONBURY ROAD / HIGHBURY CORNER;531789;184535;51.544331;-0.10089834
HIGHBURY CORNER;531717;184606;51.544985;-0.10190947
TYRAWLEY ROAD;525633;176939;51.477468;-0.19232781
WHITTINGTON HOSPITAL / MAGDALA AVENUE;529159;187011;51.567189;-0.1378946
WATERLOW ROAD / WHITTINGTON HOSPITAL;529167;186994;51.567034;-0.13778548
WATERLOW PARK / LAUDERDALE HOUSE;528807;187248;51.569399;-0.14288357
HIGHGATE HILL / HORNSEY LANE;528936;187176;51.568723;-0.14104973
CHANNING SCHOOL;528722;187315;51.570021;-0.1440848
BISHAM GARDENS;528582;187347;51.57034;-0.146092
TYRAWLEY ROAD;525630;176960;51.477658;-0.19236352
BRIXTON STATION <> #;531023;175400;51.462416;-0.11532828
BROMLEY ROAD / LEWISHAM TOWN HALL;537669;173505;51.443812;-0.02045652
SAVOY STREET;530527;180768;51.510771;-0.12048135
ALDWYCH;530625;180948;51.512366;-0.11900335
FORTUNE GREEN ROAD;525144;185961;51.558657;-0.19616489
PURLEY TESCO;531151;161410;51.336662;-0.11865276
EAST FINCHLEY STATION <>;527279;189131;51.586668;-0.16423655
BAKER STREET STATION <>;527908;182038;51.522783;-0.15773984
EAST FINCHLEY STATION <>;527276;189153;51.586866;-0.16427186
HAMMERSMITH LIBRARY;523399;178758;51.494307;-0.22384461
CLAPHAM COMMON STATION <>;529421;175306;51.46194;-0.13841012
MORNINGTON CRESCENT STATION <>;529155;183325;51.534065;-0.13930436
FORTUNE GREEN ROAD;525197;185769;51.55692;-0.19546906
HIGH STREET KENSINGTON STATION <>;525578;179595;51.50135;-0.19217543
NORTH END ROAD;524295;178882;51.495226;-0.21090096
POYNDERS COURT;529413;173985;51.45007;-0.1390081
BURNT OAK BROADWAY;520059;190570;51.601184;-0.26790614
RICHARDS AVENUE;550474;188400;51.574389;0.17001106
RICHARDS AVENUE;550363;188359;51.57405;0.16839298
LAMBETH PALACE;530541;179030;51.495149;-0.12092233
STAG LANE;520155;190412;51.599743;-0.26657478
LAMBETH PALACE;530558;179051;51.495334;-0.12066982
ST THOMAS' HOSPITAL;530796;179489;51.499215;-0.11708115
ST THOMAS' HOSPITAL;530786;179405;51.498463;-0.11725624
DICKENSON ROAD;530277;187867;51.574625;-0.12145634
DICKENSON ROAD;530236;187944;51.575326;-0.12201912
DOVER ROAD;541152;186753;51.561999;0.034923873
LONGBRIDGE ROAD;544427;184628;51.542077;0.081265459
BARNES / RED LION;522304;176588;51.475043;-0.2403608
RED LION SQUARE;530647;181812;51.520126;-0.11836654
RAVEY STREET;533121;182467;51.525434;-0.082482599
CURTAIN ROAD;533307;182309;51.523971;-0.0798628
KING WILLIAM STREET / MONUMENT STN <>;532834;180905;51.511465;-0.087205364
KNIGHTS AVENUE;518500;179458;51.501646;-0.29414492
HALBUTT STREET;549020;185253;51.546499;0.14771237
HALBUTT STREET;549040;185151;51.545577;0.14795742
MARSHAM STREET;529889;178989;51.494931;-0.13032421
ABBS CROSS GARDENS;553455;187152;51.562374;0.21244949
GROVE ROAD;538108;192896;51.617952;-0.006546131
GROVE ROAD;538032;192871;51.617746;-0.00765301
OAKMEAD GARDENS;520625;192831;51.621383;-0.25896064
MOUNT GROVE;520645;192860;51.621639;-0.2586619
HYDE PARK CORNER STATION <>;528281;179851;51.503044;-0.15316152
THE WEALDSTONE CENTRE;515422;189670;51.594063;-0.33512292
CAMBRIDGE ROAD;540070;187905;51.57262;0.019783707
HIGHSTONE AVENUE;540214;187984;51.573294;0.021891704
BLAKE HALL ROAD;540231;188007;51.573497;0.022146023
ELTHAM CHURCH / COURT YARD;542663;174360;51.45026;0.051698409
ELTHAM HIGH STREET / PASSEY PLACE;542806;174426;51.450817;0.053781544
TWICKENHAM STATION;516077;173680;51.450217;-0.33093386
FULWELL / SIXTH CROSS ROAD;514755;172139;51.436636;-0.35044926
THAMES AVENUE;550158;183102;51.526871;0.16319495
CHANCERY LANE STATION <>;531092;181621;51.518306;-0.11202744
WHETSTONE / THE GRIFFIN;526547;193964;51.630265;-0.17305371
WHETSTONE / THE GRIFFIN;526484;193922;51.629902;-0.17397859
TANGMERE GARDENS;511594;183114;51.53591;-0.39244081
DILSTON CLOSE;511453;182986;51.534787;-0.39451335
THE GRAPES;510697;181216;51.519027;-0.40596413
RICHMOND STATION <> #;518058;175232;51.463757;-0.30192121
RICHMOND STATION <> #;518048;175181;51.4633;-0.30208211
HAM GATE AVENUE;517900;172129;51.435901;-0.30522754
HAM GATE AVENUE;517887;172049;51.435185;-0.30544108
BROWNLOW STREET;530893;181592;51.518092;-0.11490462
CUMBERLAND ROAD;539822;168175;51.395389;0.00840214
WESTMORELAND ROAD / CUMBERLAND ROAD;539884;168248;51.39603;0.00932148
ST PANCRAS INTERNATIONAL STATION #;530151;182833;51.529415;-0.12513446
BECKENHAM JUNCTION STATION # >T<;537435;169662;51.409334;-0.02531083
TWICKENHAM / KING STREET;516236;173205;51.445915;-0.32880262
WHITEHALL / HORSEGUARDS AVENUE;530128;180148;51.505291;-0.12645626
BEAUMARIS DRIVE;541699;191189;51.601722;0.04459828
QUEENSBURY STATION <>;518889;189825;51.594736;-0.2850434
HENDON WAR MEMORIAL;522673;188891;51.585532;-0.23076908
ST JOSEPH'S SCHOOL;522594;189024;51.586744;-0.23186235
COLINDEEP LANE;522364;189121;51.587666;-0.23514672
SOUTHFIELDS;522435;190000;51.59555;-0.23381603
SOUTHFIELDS;522463;189979;51.595355;-0.23341933
HALL LANE;522436;190274;51.598012;-0.23370607
WESTSIDE;522463;190410;51.599229;-0.23326902
PENTAVIA RETAIL PARK;521977;191092;51.605463;-0.24004538
TITHE WALK;522111;190924;51.603924;-0.23816985
UNIVERSITY OF LONDON OBSERVATORY;521843;191823;51.612062;-0.24172556
MILL HILL PARK;521877;191771;51.611587;-0.24125284
MEADWAY / HIGH BARNET STATION <>;524839;196269;51.651361;-0.19689604
HIGH ROAD SOUTH WOODFORD;540088;190510;51.596023;0.021081778
HIGH ROAD SOUTH WOODFORD;539992;190429;51.595319;0.019664444
BROMLEY SOUTH STATION #;540397;168726;51.400198;0.016879448
OLD CAVENDISH STREET;528715;181154;51.514655;-0.14643691
TRAFALGAR SQUARE / CHARING CROSS STN <>#;530134;180521;51.508642;-0.12623235
WIGHTMAN ROAD;530961;189446;51.588656;-0.1110034
WIGHTMAN ROAD;530937;189465;51.588832;-0.11134255
SPRING VILLA ROAD;519319;191491;51.609618;-0.27827245
MORDEN ROAD / SOUTH WIMBLEDON STATION <>;525771;169976;51.414861;-0.19281397
LAMPTON ROAD;513732;176856;51.479238;-0.36364494
CROWN ROAD;534682;196265;51.649056;-0.05470574
CROWN ROAD;534641;196258;51.649003;-0.055300677
THE AVENUE;510515;176818;51.479533;-0.40996231
GLACIER WAY;518088;183441;51.537529;-0.29874448
ALPERTON LANE;518173;183249;51.535785;-0.29758388
HANGER LANE STATION <>;518541;182679;51.530586;-0.29247231
WEMBLEY HIGH ROAD;518528;185229;51.553506;-0.29180169
QUILL STREET;518252;183129;51.53469;-0.29648567
VICAR'S BRIDGE;518247;183169;51.535051;-0.2965443
ALPERTON STATION <>;518079;183810;51.540847;-0.29875053
IVEAGH AVENUE;519128;183417;51.537095;-0.28376459
IVEAGH AVENUE;519196;183518;51.537988;-0.28275045
BRENTMEAD GARDENS;518910;183238;51.535532;-0.28696667
STONEBRIDGE PARK STATION <> #;519754;184209;51.54408;-0.27447389
SUDBURY AND HARROW ROAD STATION#;516879;185340;51.554847;-0.31553811
GLACIER WAY;518064;183459;51.537696;-0.29908433
WEST CROSS WAY;516738;177613;51.48543;-0.32012815
WEST CROSS WAY;516695;177608;51.485394;-0.3207488
LOMBARD ROAD;525814;169535;51.410888;-0.1923523
MORDEN ROAD TRAM STOP >T<;525809;169370;51.409406;-0.19248263
TIFFIN GIRLS SCHOOL;517983;170927;51.425081;-0.304434
WOODHEYES ROAD;520912;185178;51.552542;-0.25745045
WOODHEYES ROAD;520904;185145;51.552248;-0.25757711
KINGSBURY STATION <>;519311;188734;51.584842;-0.27932462
NORTHWOOD STATION <>;509318;191448;51.61126;-0.42265185
NORTHWOOD STATION <>;509296;191466;51.611426;-0.42296383
CRESCENT PARADE;507439;182773;51.53365;-0.45242722
OAK FARM LIBRARY;507563;183646;51.541473;-0.45037374
ICKENHAM STATION <>;507976;186163;51.564017;-0.44364892
CRESCENT PARADE;507422;182809;51.533977;-0.45266125
CLIFTON GARDENS;507438;183333;51.538683;-0.45227092
AUSTINS LANE;508002;186295;51.565198;-0.44323345
SHAKESPEARE AVENUE;511160;182074;51.526648;-0.39902349
WILLOW TREE LANE;511140;182245;51.528189;-0.39925777
SOMERTON ROAD;523951;186158;51.560691;-0.21329574
SOMERTON ROAD;523946;186191;51.560988;-0.21335621
CHISWICK ROUNDABOUT / GUNNERSBURY;519236;178402;51.492;-0.28390284
LINDSAY ROAD;522778;165667;51.37679;-0.23732004
TOLLINGTON PARK;530552;186570;51.562905;-0.11797172
WOOD GREEN STATION <>;530990;190449;51.597662;-0.11021098
SUTTON POLICE STATION;526056;164063;51.361657;-0.19081508
CAMBRIDGE PARK;517399;174191;51.454537;-0.31174846
BELVEDERE COURT;526931;188827;51.584014;-0.16936667
WAYFARER ROAD;512128;182829;51.533242;-0.3848356
WAYFARER ROAD;512012;182856;51.533508;-0.38649868
CONCORD ROAD;519562;182280;51.526784;-0.27789571
KENDAL AVENUE;519388;182244;51.526498;-0.28041491
SHEEN COURT;519389;175209;51.463271;-0.28277815
PICCADILLY CIRCUS;529482;180662;51.510059;-0.13557022
KENSINGTON OLYMPIA STATION <>#;524372;178951;51.495829;-0.20976804
NORTHOLT STATION <>;513253;184518;51.548198;-0.36808052
CHALGROVE AVENUE;525201;167759;51.395062;-0.20178789
RUTLAND DRIVE;524844;167132;51.389506;-0.20713689
ASH ROAD;524415;166515;51.384055;-0.2135152
STONECOT HILL / GARTH ROAD;524118;166075;51.380165;-0.21793454
ST ANTHONY'S HOSPITAL;523968;165863;51.378293;-0.22016268
NORTH CHEAM SPORTS CLUB;523680;165391;51.374114;-0.22446279
BURLEIGH ROAD;524345;166434;51.383342;-0.21454892
STONECOT HILL / GARTH ROAD;524163;166164;51.380955;-0.21725719
NORTH CHEAM SPORTS CLUB;523708;165454;51.374674;-0.2240388
HARROW WEALD BUS GARAGE;515042;190970;51.605825;-0.34018032
PECKHAM RYE / EAST DULWICH ROAD;534398;175539;51.462875;-0.066722073
ESSEX ROAD STATION #;532212;184184;51.541078;-0.094933728
BARNET HIGH STREET / BARNET CHURCH;524703;196406;51.652623;-0.19881201
FELTHAM STATION # / VICTORIA ROAD;510606;173160;51.446637;-0.40979563
PECKHAM RYE / EAST DULWICH ROAD;534412;175521;51.46271;-0.066527502
CANONS PARK STATION <>;518140;191214;51.607377;-0.29538386
BROOMHILL ROAD;525367;174271;51.45355;-0.19710135
